stop_id,stop_code,stop_name,stop_lat,stop_lon,location_type,parent_station
S3188,,Biste,43.6557721576119,4.0000557114274,1,
911,29104,Biste,43.6557721576119,4.0000557114274,0,S3188
934,29209,Biste,43.6558247439801,4.00014392067802,0,S3188
S3189,,Collège Le Bérange,43.6673413297462,4.0233917496602,1,
918,29111,Collège Le Bérange,43.6673413297462,4.0233917496602,0,S3189
926,29201,Collège Le Bérange,43.6673317650399,4.02342862183461,0,S3189
S3190,,Fenouillet,43.6635904255646,4.02178240531404,1,
917,29110,Fenouillet,43.6635904255646,4.02178240531404,0,S3190
927,29202,Fenouillet,43.6646747452601,4.02143050793526,0,S3190
S3191,,François Perroux,43.6536354310951,4.00103352330552,1,
919,29112,François Perroux,43.6536354310951,4.00103352330552,0,S3191
936,29213,François Perroux,43.6536354310951,4.00103352330552,0,S3191
S3192,,Gaston Baissette,43.664580696569,4.01706843958037,1,
928,29203,Gaston Baissette,43.664580696569,4.01706843958037,0,S3192
S3193,,Golf,43.6520219610824,4.00481238250628,1,
920,29120,Golf,43.6520219610824,4.00481238250628,0,S3193
S3194,,Le Grès,43.6625011360157,4.0091186760332,1,
914,29107,Le Grès,43.6625011360157,4.0091186760332,0,S3194
931,29206,Le Grès,43.662522738433,4.01004809954575,0,S3194
S3195,,Le Levant,43.6617039022968,4.01764007130183,1,
916,29109,Le Levant,43.6617039022968,4.01764007130183,0,S3195
S3196,,Mairie,43.6611525526901,4.01319050481901,1,
915,29108,Mairie,43.6611525526901,4.01319050481901,0,S3196
930,29205,Mairie,43.6617703240323,4.01277522254134,0,S3196
S3197,,Paradis,43.664095417784,4.01415623946003,1,
929,29204,Paradis,43.664095417784,4.01415623946003,0,S3197
S3198,,Paul Cézanne,43.659736395634,4.006511472525,1,
913,29106,Paul Cézanne,43.659736395634,4.006511472525,0,S3198
932,29207,Paul Cézanne,43.6601363860912,4.00680799260802,0,S3198
S3199,,Treille,43.6572436316497,4.00316950573506,1,
912,29105,Treille,43.6572436316497,4.00316950573506,0,S3199
933,29208,Treille,43.6576677310484,4.00365243525348,0,S3199
S3200,,Le Créant,43.727578524662,4.02857115833082,1,
951,31106,Le Créant,43.727578524662,4.02857115833082,0,S3200
957,31206,Le Créant,43.7275303031763,4.02878049421611,0,S3200
S3201,,Mairie,43.7288603379361,4.02073625784956,1,
1024,35109,Mairie,43.7288603379361,4.02073625784956,0,S3201
S3202,,..,43.6399527324603,3.92868889042722,1,
1234,42171,..,43.6399527324603,3.92868889042722,0,S3202
1265,42271,..,43.6399888596326,3.92867751910522,0,S3202
S3203,,Aube Rouge,43.6393914722445,3.92405602878819,1,
1042,35221,Aube Rouge,43.6393914722445,3.92405602878819,0,S3203
1230,42163,Aube Rouge,43.6385424965602,3.92493604745572,0,S3203
1237,42207,Aube Rouge,43.6385340549184,3.92489867744832,0,S3203
S3204,,Balestrier,43.6442698119465,3.90329490872889,1,
144,04169,Balestrier,43.6442698119465,3.90329490872889,0,S3204
146,04202,Balestrier,43.644216609946,3.90324393055571,0,S3204
S3205,,Buissonnets,43.6455104220422,3.90701814686909,1,
143,04168,Buissonnets,43.6455104220422,3.90701814686909,0,S3205
147,04203,Buissonnets,43.6454915517247,3.90707952701449,0,S3205
S3206,,Castelnau Zone d'Activités,43.6365033072149,3.92728064593749,1,
605,20116,Castelnau Zone d'Activités,43.6365033072149,3.92728064593749,0,S3206
637,20219,Castelnau Zone d'Activités,43.6366542556443,3.92740863105548,0,S3206
S3207,,Castors,43.6328261053058,3.90388446318563,1,
129,04127,Castors,43.6328261053058,3.90388446318563,0,S3207
1038,35214,Castors,43.6328473023183,3.90366225732107,0,S3207
S3208,,Caylus,43.6449557975149,3.89812663588129,1,
1070,36141,Caylus,43.6449557975149,3.89812663588129,0,S3208
1107,36241,Caylus,43.6449270533471,3.89824964662689,0,S3208
S3209,,Centurions,43.6327979757423,3.91571619886334,1,
1228,42157,Centurions,43.6327979757423,3.91571619886334,0,S3209
1239,42213,Centurions,43.6328251150762,3.91570457225184,0,S3209
S3210,,Charles de Gaulle,43.6282013698943,3.89669080132644,1,
427,10150,Charles de Gaulle,43.6282013698943,3.89669080132644,0,S3210
464,10246,Charles de Gaulle,43.6281043038585,3.89656438921334,0,S3210
1025,35110,Charles de Gaulle,43.6283298095038,3.89775865403373,0,S3210
1036,35210,Charles de Gaulle,43.6283939626101,3.89767377505847,0,S3210
1225,42151,Charles de Gaulle,43.6285551805181,3.89771531053076,0,S3210
1242,42219,Charles de Gaulle,43.6285736884137,3.89767868803626,0,S3210
S3211,,Chemin de la Monnaie,43.6435700885897,3.9106290870478,1,
142,04167,Chemin de la Monnaie,43.6435700885897,3.9106290870478,0,S3211
148,04204,Chemin de la Monnaie,43.6435981271675,3.91055558340119,0,S3211
S3212,,Chênes,43.6390510445649,3.90919239078827,1,
138,04163,Chênes,43.6390510445649,3.90919239078827,0,S3212
152,04208,Chênes,43.6390269614346,3.90899367229946,0,S3212
S3213,,Cimetière,43.6319913382807,3.89757408834865,1,
155,04218,Cimetière,43.6319913382807,3.89757408834865,0,S3213
S3214,,Clairval,43.6301926964308,3.90259928952745,1,
1226,42153,Clairval,43.6301926964308,3.90259928952745,0,S3214
1241,42217,Clairval,43.6302198343012,3.90258765721135,0,S3214
S3215,,Clinique du Parc,43.6342063024452,3.89108701653735,1,
1027,35113,Clinique du Parc,43.6342063024452,3.89108701653735,0,S3215
S3216,,Closerie des Guilhems,43.6343634402019,3.89516345473925,1,
686,22102,Closerie des Guilhems,43.6343634402019,3.89516345473925,0,S3216
728,22219,Closerie des Guilhems,43.6360043938932,3.89420564762028,0,S3216
S3217,,Collège Frédéric Bazille,43.6343880157283,3.90652659408445,1,
1026,35112,Collège Frédéric Bazille,43.6343880157283,3.90652659408445,0,S3217
1037,35212,Collège Frédéric Bazille,43.6344591884076,3.90657806069171,0,S3217
S3218,,Décurions,43.6355832220519,3.90903499501526,1,
1030,35117,Décurions,43.6355832220519,3.90903499501526,0,S3218
1041,35217,Décurions,43.6356640988696,3.90903722222586,0,S3218
S3219,,Georges Pompidou,43.6492711127252,3.92101273052626,1,
1232,42167,Georges Pompidou,43.6492711127252,3.92101273052626,0,S3219
1235,42203,Georges Pompidou,43.6492626696601,3.92097535407436,0,S3219
S3220,,Idate,43.649180186676,3.89881169561391,1,
710,22163,Idate,43.649180186676,3.89881169561391,0,S3220
736,22264,Idate,43.6488365595246,3.89895085872176,0,S3220
S3221,,Jean Jaurès,43.6400422975957,3.89410536697248,1,
687,22103,Jean Jaurès,43.6400422975957,3.89410536697248,0,S3221
727,22218,Jean Jaurès,43.6411392613682,3.89346683288554,0,S3221
S3222,,La Galine,43.6314568933244,3.90903276236359,1,
1227,42155,La Galine,43.6314568933244,3.90903276236359,0,S3222
1240,42215,La Galine,43.6314840319125,3.9090211328481,0,S3222
S3223,,La Pompignane (Les Lacs),43.625787148893,3.90077065873149,1,
322,08121,La Pompignane (Les Lacs),43.625787148893,3.90077065873149,0,S3223
329,08203,La Pompignane (Les Lacs),43.6246632292962,3.89953947163166,0,S3223
426,10149,La Pompignane (Les Lacs),43.625129494548,3.90024525472351,0,S3223
S3224,,Les Aires,43.6424986996744,3.89956969227814,1,
145,04201,Les Aires,43.6424986996744,3.89956969227814,0,S3224
S3225,,Mairie de Castelnau,43.6330091116361,3.89744100806514,1,
128,04125,Mairie de Castelnau,43.6330091116361,3.89744100806514,0,S3225
S3226,,Marcel Dassault,43.6221463075842,3.91685716882733,1,
1118,37101,Marcel Dassault,43.6221463075842,3.91685716882733,0,S3226
1119,37202,Marcel Dassault,43.6221186264535,3.91690590214554,0,S3226
S3227,,Mas de Rochet,43.6258568047784,3.90651483383368,1,
324,08123,Mas de Rochet,43.6258568047784,3.90651483383368,0,S3227
325,08124,Mas de Rochet,43.6258638020908,3.90603237833896,0,S3227
S3228,,Mûriers,43.6406734119201,3.91137861031573,1,
139,04164,Mûriers,43.6406734119201,3.91137861031573,0,S3228
151,04207,Mûriers,43.64063332609,3.91166221718574,0,S3228
S3229,,Notre-Dame de Sablassou,43.634744012537,3.9234193442594,1,
679,21217,Notre-Dame de Sablassou,43.634744012537,3.9234193442594,0,S3229
680,21218,Notre-Dame de Sablassou,43.633957365597,3.92188744182756,0,S3229
1229,42159,Notre-Dame de Sablassou,43.6342394895382,3.9222665979465,0,S3229
1238,42211,Notre-Dame de Sablassou,43.6342668108514,3.92224260173059,0,S3229
S3230,,Palais des Sports,43.6451616185958,3.91739519500982,1,
1029,35116,Palais des Sports,43.6451616185958,3.91739519500982,0,S3230
1040,35216,Palais des Sports,43.6451643288231,3.91720957297141,0,S3230
S3231,,Pioch Pelat,43.6261711395677,3.9021919985687,1,
323,08122,Pioch Pelat,43.6261711395677,3.9021919985687,0,S3231
328,08202,Pioch Pelat,43.6262280991301,3.9019831739828,0,S3231
S3232,,Place de la Liberté,43.6331591707961,3.89576181914461,1,
685,22101,Place de la Liberté,43.6331591707961,3.89576181914461,0,S3232
729,22220,Place de la Liberté,43.6332154054653,3.89560245170636,0,S3232
S3233,,Place de la Monnaie,43.6441500733198,3.91031082909727,1,
141,04166,Place de la Monnaie,43.6441500733198,3.91031082909727,0,S3233
149,04205,Place de la Monnaie,43.6442859481212,3.91024029688153,0,S3233
S3234,,Place du Forum,43.6446425690615,3.92399158449931,1,
131,04136,Place du Forum,43.6446425690615,3.92399158449931,0,S3234
168,04263,Place du Forum,43.6445257466447,3.92398833630581,0,S3234
S3235,,Roger Salengro,43.6327652724875,3.89627090008932,1,
127,04124,Roger Salengro,43.6327652724875,3.89627090008932,0,S3235
S3236,,Rose de France,43.6322866035459,3.90140663937507,1,
1028,35115,Rose de France,43.6322866035459,3.90140663937507,0,S3236
1039,35215,Rose de France,43.6323743201682,3.90155756686936,0,S3236
S3237,,Saint-Exupéry,43.6415434572066,3.92321219328369,1,
130,04135,Saint-Exupéry,43.6415434572066,3.92321219328369,0,S3237
169,04264,Saint-Exupéry,43.6415804906079,3.92313894814253,0,S3237
S3238,,Sapins,43.6370134771289,3.91021315998486,1,
136,04161,Sapins,43.6370134771289,3.91021315998486,0,S3238
154,04210,Sapins,43.6369133684904,3.91029704699509,0,S3238
S3239,,Sycomores,43.6418619609436,3.91063151180266,1,
140,04165,Sycomores,43.6418619609436,3.91063151180266,0,S3239
150,04206,Sycomores,43.6418538741672,3.91056939352553,0,S3239
S3240,,Thym,43.6379609688986,3.9062534877453,1,
137,04162,Thym,43.6379609688986,3.9062534877453,0,S3240
153,04209,Thym,43.6377643460114,3.90617381348466,0,S3240
S3241,,Via Domitia,43.6465326691418,3.92996184330354,1,
1231,42165,Via Domitia,43.6465326691418,3.92996184330354,0,S3241
1236,42205,Via Domitia,43.6465335797711,3.929899968006,0,S3241
S3242,,Aqueduc,43.6787763140789,3.9860845476151,1,
1020,35104,Aqueduc,43.6787763140789,3.9860845476151,0,S3242
1031,35202,Aqueduc,43.6791372143337,3.98659047719699,0,S3242
S3243,,Centre,43.6746838205825,3.9832536160787,1,
1019,35103,Centre,43.6746838205825,3.9832536160787,0,S3243
1032,35203,Centre,43.6748021959055,3.98256339097524,0,S3243
S3244,,Collège Les Pins,43.6841900674496,3.99070093321753,1,
1021,35106,Collège Les Pins,43.6841900674496,3.99070093321753,0,S3244
1035,35209,Collège Les Pins,43.684287027536,3.9908276297434,0,S3244
S3245,,Cap Alpha,43.6596205968771,3.90047195260628,1,
694,22113,Cap Alpha,43.6596205968771,3.90047195260628,0,S3245
722,22209,Cap Alpha,43.65983430634,3.90061402039391,0,S3245
S3246,,Château,43.6554749160466,3.89119571104115,1,
690,22108,Château,43.6554749160466,3.89119571104115,0,S3246
1074,36154,Château,43.6553496569895,3.89240572927259,0,S3246
1111,36254,Château,43.6552358557029,3.89219213502475,0,S3246
S3247,,Cimetière,43.6579911526276,3.89251487634728,1,
692,22110,Cimetière,43.6579911526276,3.89251487634728,0,S3247
S3248,,Église,43.6576165770198,3.88917379385947,1,
691,22109,Église,43.6576165770198,3.88917379385947,0,S3248
S3249,,La Croisée,43.6600591540473,3.8968681391686,1,
709,22138,La Croisée,43.6600591540473,3.8968681391686,0,S3249
733,22238,La Croisée,43.6601384274227,3.89698175311954,0,S3249
S3250,,Leenhardt,43.6568035493371,3.88505315957712,1,
725,22213,Leenhardt,43.6568035493371,3.88505315957712,0,S3250
S3251,,Médiathèque Albert Camus,43.6555449063627,3.88127966727777,1,
731,22227,Médiathèque Albert Camus,43.6555449063627,3.88127966727777,0,S3251
S3252,,Moulières,43.6596783950155,3.89334099151526,1,
693,22111,Moulières,43.6596783950155,3.89334099151526,0,S3252
723,22211,Moulières,43.6596898726079,3.89316794422114,0,S3252
S3253,,Olivette,43.6585929120048,3.88942323822112,1,
724,22212,Olivette,43.6585929120048,3.88942323822112,0,S3253
S3254,,Pigeonniers,43.6535381616301,3.88393691616955,1,
688,22106,Pigeonniers,43.6535381616301,3.88393691616955,0,S3254
726,22215,Pigeonniers,43.6537227454333,3.88171323989899,0,S3254
S3255,,Stade,43.6534986333116,3.88921037094662,1,
689,22107,Stade,43.6534986333116,3.88921037094662,0,S3255
S3256,,Hauts des Clavoux,43.5450120486861,3.70066412319656,1,
1066,36135,Hauts des Clavoux,43.5450120486861,3.70066412319656,0,S3256
1080,36202,Hauts des Clavoux,43.5449575083002,3.70071225225095,0,S3256
S3257,,La Vierge,43.546415412798,3.70271191468994,1,
1065,36134,La Vierge,43.546415412798,3.70271191468994,0,S3257
1081,36203,La Vierge,43.5463345375864,3.70270998281787,0,S3257
S3258,,Les Clavoux,43.543412362814,3.70063832772007,1,
1079,36201,Les Clavoux,43.543412362814,3.70063832772007,0,S3258
S3259,,Mairie,43.5500419167379,3.70807566133269,1,
1063,36132,Mairie,43.5500419167379,3.70807566133269,0,S3259
1083,36205,Mairie,43.5501298971527,3.70822607462144,0,S3259
S3260,,Tambourin,43.5489358360518,3.70456408194354,1,
1064,36133,Tambourin,43.5489358360518,3.70456408194354,0,S3260
1082,36204,Tambourin,43.5489970191935,3.70470148737255,0,S3260
S3261,,Tournesol,43.5533843907895,3.70960186624772,1,
1062,36131,Tournesol,43.5533843907895,3.70960186624772,0,S3261
1084,36206,Tournesol,43.5534080535972,3.70986198015807,0,S3261
S3262,,Beaulieu,43.5605283810715,3.72665838618745,1,
1056,36124,Beaulieu,43.5605283810715,3.72665838618745,0,S3262
1090,36213,Beaulieu,43.5605984500155,3.72750063255586,0,S3262
S3263,,Chanterelles,43.5601277083294,3.70805800842226,1,
1069,36140,Chanterelles,43.5601277083294,3.70805800842226,0,S3263
1106,36240,Chanterelles,43.5601277083294,3.70805800842226,0,S3263
S3264,,Jean Jaurès,43.5583773544763,3.71210731688357,1,
1060,36129,Jean Jaurès,43.5583773544763,3.71210731688357,0,S3264
1086,36209,Jean Jaurès,43.5583773544763,3.71210731688357,0,S3264
S3265,,Jean Moulin,43.5552244595788,3.71193259622444,1,
1061,36130,Jean Moulin,43.5552244595788,3.71193259622444,0,S3265
1087,36210,Jean Moulin,43.5552244595788,3.71193259622444,0,S3265
S3266,,Les Grenaches,43.5531810203811,3.71850802737125,1,
1058,36126,Les Grenaches,43.5531810203811,3.71850802737125,0,S3266
1088,36211,Les Grenaches,43.5530523867546,3.71802290732636,0,S3266
S3267,,Stade,43.5559327018239,3.72193642009621,1,
1057,36125,Stade,43.5559327018239,3.72193642009621,0,S3267
1089,36212,Stade,43.555993071444,3.72213564132496,0,S3267
S3268,,Temple,43.5574499532228,3.71646052107232,1,
1059,36127,Temple,43.5574499532228,3.71646052107232,0,S3268
1085,36207,Temple,43.5574499532228,3.71646052107232,0,S3268
S3269,,Arbousiers,43.6546518799841,3.94447722739425,1,
613,20125,Arbousiers,43.6546518799841,3.94447722739425,0,S3269
627,20209,Arbousiers,43.6537664380031,3.94477421203757,0,S3269
S3270,,Arènes,43.6428293221212,3.93662999335443,1,
607,20118,Arènes,43.6428293221212,3.93662999335443,0,S3270
635,20217,Arènes,43.6429848563653,3.93705525168672,0,S3270
S3271,,Baléares,43.6512900839398,3.94383776283102,1,
612,20124,Baléares,43.6512900839398,3.94383776283102,0,S3271
628,20210,Baléares,43.6513282337947,3.94369026223768,0,S3271
S3272,,Capri,43.6460563797867,3.93847840653484,1,
608,20119,Capri,43.6460563797867,3.93847840653484,0,S3272
634,20216,Capri,43.6465889661743,3.93893903718679,0,S3272
S3273,,Chênes,43.6451988568339,3.94174739510824,1,
609,20120,Chênes,43.6451988568339,3.94174739510824,0,S3273
633,20215,Chênes,43.6451221996949,3.94146050271311,0,S3273
S3274,,Cimetière,43.6511652282725,3.94073895070555,1,
611,20123,Cimetière,43.6511652282725,3.94073895070555,0,S3274
629,20211,Cimetière,43.6511938375128,3.94062832396759,0,S3274
S3275,,Fernand Rouché,43.6475607919,3.94130620961306,1,
610,20121,Fernand Rouché,43.6475607919,3.94130620961306,0,S3275
632,20214,Fernand Rouché,43.6474799150244,3.94130393621185,0,S3275
S3276,,Garenne,43.6491999702133,3.94049801512273,1,
631,20213,Garenne,43.6491999702133,3.94049801512273,0,S3276
S3277,,Jean Jaurès,43.6572372442651,3.9429155649451,1,
614,20126,Jean Jaurès,43.6572372442651,3.9429155649451,0,S3277
626,20208,Jean Jaurès,43.6566184693101,3.94281147482403,0,S3277
S3278,,Le Crès,43.6389738949026,3.93410813967641,1,
650,21101,Le Crès,43.6389738949026,3.93410813967641,0,S3278
S3279,,Mandel,43.656856496572,3.93827382621839,1,
616,20128,Mandel,43.656856496572,3.93827382621839,0,S3279
624,20206,Mandel,43.6573392203485,3.93967421366432,0,S3279
S3280,,Maumarin,43.6613927884307,3.94398604210392,1,
942,30105,Maumarin,43.6613927884307,3.94398604210392,0,S3280
943,30201,Maumarin,43.6614461556636,3.94402469535395,0,S3280
S3281,,Monteroni d'Arbia,43.6601217917364,3.93632224382456,1,
940,30103,Monteroni d'Arbia,43.6601217917364,3.93632224382456,0,S3281
944,30203,Monteroni d'Arbia,43.6601758930944,3.93631137705533,0,S3281
S3282,,Mozart,43.6576603530652,3.94045095339265,1,
615,20127,Mozart,43.6576603530652,3.94045095339265,0,S3282
625,20207,Mozart,43.6572077307511,3.94187460450758,0,S3282
S3283,,Pointes,43.6397098568722,3.93419062498349,1,
606,20117,Pointes,43.6397098568722,3.93419062498349,0,S3283
636,20218,Pointes,43.63865085189,3.93284887834069,0,S3283
S3284,,Rocailles,43.6568261578305,3.9360689079116,1,
617,20129,Rocailles,43.6568261578305,3.9360689079116,0,S3284
623,20205,Rocailles,43.6569127024147,3.93568747825175,0,S3284
S3285,,Route de Nîmes,43.6416006644368,3.94250039302967,1,
651,21102,Route de Nîmes,43.6416006644368,3.94250039302967,0,S3285
678,21216,Route de Nîmes,43.6417851621353,3.94218372455138,0,S3285
S3286,,Sienne,43.6622712970194,3.94112540559581,1,
941,30104,Sienne,43.6622712970194,3.94112540559581,0,S3286
945,30204,Sienne,43.6622907370776,3.94102688334114,0,S3286
S3287,,Substantion,43.6504620845288,3.9396544233764,1,
618,20136,Substantion,43.6504620845288,3.9396544233764,0,S3287
630,20212,Substantion,43.6502359600201,3.9397471212206,0,S3287
S3288,,Albinoni,43.5581350418709,3.7863754578992,1,
995,33104,Albinoni,43.5581350418709,3.7863754578992,0,S3288
1010,33206,Albinoni,43.5580623249801,3.78643541682062,0,S3288
S3289,,École La Gardiole,43.5575574830218,3.78251671986047,1,
997,33106,École La Gardiole,43.5575574830218,3.78251671986047,0,S3289
1008,33204,École La Gardiole,43.5572462762043,3.78226164292849,0,S3289
S3290,,Jeu de Ballon,43.5521875462385,3.77604063951607,1,
998,33107,Jeu de Ballon,43.5521875462385,3.77604063951607,0,S3290
1007,33203,Jeu de Ballon,43.5521899503703,3.77653506985874,0,S3290
S3291,,Le Hameau,43.5470266703408,3.77342675546985,1,
1000,33109,Le Hameau,43.5470266703408,3.77342675546985,0,S3291
S3292,,Les Cousses,43.5578534581975,3.78994050392317,1,
994,33103,Les Cousses,43.5578534581975,3.78994050392317,0,S3292
1011,33207,Les Cousses,43.5578283271999,3.78980389959415,0,S3292
S3293,,Les Écoles,43.549484104441,3.77722081493698,1,
999,33108,Les Écoles,43.549484104441,3.77722081493698,0,S3293
1006,33202,Les Écoles,43.5494872326057,3.77698607913234,0,S3293
S3294,,Les Hauts,43.5585575465597,3.79439588077278,1,
993,33102,Les Hauts,43.5585575465597,3.79439588077278,0,S3294
1012,33208,Les Hauts,43.5584324085762,3.79434324761215,0,S3294
S3295,,Lou Paillas,43.5455589484766,3.77429200017013,1,
991,33100,Lou Paillas,43.5455589484766,3.77429200017013,0,S3295
S3296,,Paix,43.5554537263135,3.77917577114427,1,
1001,33110,Paix,43.5554537263135,3.77917577114427,0,S3296
1014,33210,Paix,43.5552481161988,3.77841662911049,0,S3296
S3297,,Rouget de Lisle,43.5570936856391,3.78426015772241,1,
996,33105,Rouget de Lisle,43.5570936856391,3.78426015772241,0,S3297
1009,33205,Rouget de Lisle,43.5569121446524,3.78439152458627,0,S3297
S3298,,Avenue de Rome,43.6432406913763,3.82392823740357,1,
793,24104,Avenue de Rome,43.6432406913763,3.82392823740357,0,S3298
817,24210,Avenue de Rome,43.643142009288,3.8239132876405,0,S3298
S3299,,Cave Coopérative,43.6472203757665,3.8003862504151,1,
797,24108,Cave Coopérative,43.6472203757665,3.8003862504151,0,S3299
813,24206,Cave Coopérative,43.6467186942592,3.80158660695147,0,S3299
S3300,,Centre,43.64789356239,3.79713518113851,1,
798,24109,Centre,43.64789356239,3.79713518113851,0,S3300
812,24205,Centre,43.6473597766086,3.79871853501866,0,S3300
S3301,,Garriguettes,43.6464833470499,3.80369750373487,1,
796,24107,Garriguettes,43.6464833470499,3.80369750373487,0,S3301
814,24207,Garriguettes,43.6465042855508,3.80546834629662,0,S3301
S3302,,Gaston Planté,43.6465394490928,3.83114495623878,1,
808,24125,Gaston Planté,43.6465394490928,3.83114495623878,0,S3302
824,24225,Gaston Planté,43.6466977902818,3.83139669878468,0,S3302
S3303,,Genêts,43.6457980631527,3.8098077986378,1,
794,24105,Genêts,43.6457980631527,3.8098077986378,0,S3303
816,24209,Genêts,43.6456537191338,3.81116582833473,0,S3303
S3304,,La Valsière,43.6500911262756,3.83174554313606,1,
801,24116,La Valsière,43.6500911262756,3.83174554313606,0,S3304
S3305,,Le Pradas,43.6608543052475,3.79198122815254,1,
809,24201,Le Pradas,43.6608543052475,3.79198122815254,0,S3305
S3306,,Le Rio,43.6466636110622,3.80631427117979,1,
795,24106,Le Rio,43.6466636110622,3.80631427117979,0,S3306
815,24208,Le Rio,43.646293636607,3.80774079373788,0,S3306
S3307,,Les Terrasses,43.6547330011201,3.79058701483149,1,
800,24112,Les Terrasses,43.6547330011201,3.79058701483149,0,S3307
810,24202,Les Terrasses,43.6545396142363,3.79026017134638,0,S3307
S3308,,L'Île Bleue,43.6483548367911,3.83183625328128,1,
802,24117,L'Île Bleue,43.6483548367911,3.83183625328128,0,S3308
819,24215,L'Île Bleue,43.6484667052179,3.83219821074534,0,S3308
S3309,,Source,43.6506648675661,3.79094148627572,1,
799,24110,Source,43.6506648675661,3.79094148627572,0,S3309
811,24204,Source,43.6505939715505,3.79086539659156,0,S3309
S3310,,Bel Air,43.6598640290202,3.92206214893719,1,
705,22131,Bel Air,43.6598640290202,3.92206214893719,0,S3310
S3311,,Bibliothèque,43.6589943641775,3.91142592874595,1,
713,22169,Bibliothèque,43.6589943641775,3.91142592874595,0,S3311
738,22269,Bibliothèque,43.6591399476986,3.91130611736235,0,S3311
S3312,,C. Sylvains,43.6562251601759,3.9145317504333,1,
701,22126,C. Sylvains,43.6562251601759,3.9145317504333,0,S3312
S3313,,Chesnaie,43.65886447893,3.92401563138875,1,
697,22122,Chesnaie,43.65886447893,3.92401563138875,0,S3313
S3314,,Cimetière Jacou,43.6591494979054,3.90941180974736,1,
696,22115,Cimetière Jacou,43.6591494979054,3.90941180974736,0,S3314
720,22207,Cimetière Jacou,43.6594498218847,3.90792175727016,0,S3314
S3315,,Clos des Garrigues,43.657710629139,3.91931532355401,1,
699,22124,Clos des Garrigues,43.657710629139,3.91931532355401,0,S3315
S3316,,Coeur de Ville,43.6594373458094,3.91310984076791,1,
719,22206,Coeur de Ville,43.6594373458094,3.91310984076791,0,S3316
S3317,,Collège Pierre Mendès France,43.6672513138801,3.91238446872628,1,
706,22135,Collège Pierre Mendès France,43.6672513138801,3.91238446872628,0,S3317
730,22222,Collège Pierre Mendès France,43.6671896690639,3.91229607463312,0,S3317
S3318,,De Bocaud,43.6595636520239,3.90378900462935,1,
695,22114,De Bocaud,43.6595636520239,3.90378900462935,0,S3318
721,22208,De Bocaud,43.6596716968525,3.90439873391089,0,S3318
S3319,,Écureuil,43.6628273031416,3.90997135454198,1,
711,22165,Écureuil,43.6628273031416,3.90997135454198,0,S3319
735,22262,Écureuil,43.6635183687162,3.90943313618745,0,S3319
S3320,,Grand Rue,43.659305933294,3.91903760561673,1,
704,22130,Grand Rue,43.659305933294,3.91903760561673,0,S3320
S3321,,Hélios,43.6614662424084,3.91946900195475,1,
717,22204,Hélios,43.6614662424084,3.91946900195475,0,S3321
S3322,,Jacou,43.6547029283364,3.91288002848885,1,
707,22136,Jacou,43.6547029283364,3.91288002848885,0,S3322
732,22237,Jacou,43.6546939419025,3.91287978033304,0,S3322
1233,42169,Jacou,43.6546040775665,3.91287729877921,0,S3322
S3323,,Jean Joubert,43.6672819548778,3.91460215683388,1,
1139,39101,Jean Joubert,43.6672819548778,3.91460215683388,0,S3323
1141,39201,Jean Joubert,43.6673184420604,3.91456601191233,0,S3323
S3324,,La Draye,43.6688846015263,3.91751978013283,1,
708,22137,La Draye,43.6688846015263,3.91751978013283,0,S3324
S3325,,Lou Pradet,43.6622564197652,3.92199238835,1,
716,22203,Lou Pradet,43.6622564197652,3.92199238835,0,S3325
S3326,,Lucien Lambert,43.6569490193857,3.91236008522556,1,
1140,39102,Lucien Lambert,43.6569490193857,3.91236008522556,0,S3326
1142,39202,Lucien Lambert,43.6569499199598,3.91229819835448,0,S3326
S3327,,Parc,43.6613120054266,3.90907513640856,1,
712,22166,Parc,43.6613120054266,3.90907513640856,0,S3327
734,22261,Parc,43.6615681195381,3.90939177607437,0,S3327
S3328,,Piscine,43.6605751635585,3.92629218105293,1,
714,22201,Piscine,43.6605751635585,3.92629218105293,0,S3328
S3329,,Pont de la Draye,43.6621879238232,3.92482631138698,1,
715,22202,Pont de la Draye,43.6621879238232,3.92482631138698,0,S3329
S3330,,Roland Garros,43.6562866447651,3.91709656834973,1,
700,22125,Roland Garros,43.6562866447651,3.91709656834973,0,S3330
S3331,,Romarin,43.6575127761607,3.91377486790987,1,
702,22128,Romarin,43.6575127761607,3.91377486790987,0,S3331
S3332,,Roveraie,43.6583717358433,3.92205784533887,1,
698,22123,Roveraie,43.6583717358433,3.92205784533887,0,S3332
S3333,,Thym,43.6591524172321,3.91723783724737,1,
703,22129,Thym,43.6591524172321,3.91723783724737,0,S3333
S3334,,Tournesol,43.6603962469962,3.91578631038341,1,
718,22205,Tournesol,43.6603962469962,3.91578631038341,0,S3334
S3335,,Allée de l'Europe,43.6139435933472,3.81011219636448,1,
840,25128,Allée de l'Europe,43.6139435933472,3.81011219636448,0,S3335
861,25228,Allée de l'Europe,43.6138082923281,3.81014582426996,0,S3335
S3336,,Calade,43.6278396970131,3.79964199437042,1,
834,25115,Calade,43.6278396970131,3.79964199437042,0,S3336
848,25203,Calade,43.6280096043925,3.79970822569717,0,S3336
S3337,,Églantiers,43.6078746360328,3.81282582594312,1,
828,25104,Églantiers,43.6078746360328,3.81282582594312,0,S3337
854,25214,Églantiers,43.6078017329316,3.81289817042971,0,S3337
S3338,,Fontcaude,43.6321169591642,3.80176896625415,1,
846,25201,Fontcaude,43.6321169591642,3.80176896625415,0,S3338
860,25226,Fontcaude,43.6323584230524,3.80186179826462,0,S3338
S3339,,Grand Chêne,43.6199746369738,3.79758443747813,1,
837,25120,Grand Chêne,43.6199746369738,3.79758443747813,0,S3339
859,25220,Grand Chêne,43.6200631655203,3.79768569390263,0,S3339
S3340,,Hauts de Fontcaude,43.6321792623191,3.79849075719746,1,
836,25118,Hauts de Fontcaude,43.6321792623191,3.79849075719746,0,S3340
858,25219,Hauts de Fontcaude,43.6321719087268,3.79903514052518,0,S3340
S3341,,Hôtel de Ville,43.6139562593701,3.8052129318771,1,
841,25129,Hôtel de Ville,43.6139562593701,3.8052129318771,0,S3341
862,25229,Hôtel de Ville,43.6138753818252,3.80521085255219,0,S3341
S3342,,Juvignac,43.6174850753856,3.81014168845545,1,
1266,43101,Juvignac,43.6174850753856,3.81014168845545,0,S3342
S3343,,La Bergerie,43.6170743813242,3.7966688691166,1,
845,25133,La Bergerie,43.6170743813242,3.7966688691166,0,S3343
866,25233,La Bergerie,43.6169941709535,3.79661732551847,0,S3343
S3344,,La Plaine,43.6117081690363,3.81450853831305,1,
826,25102,La Plaine,43.6117081690363,3.81450853831305,0,S3344
856,25216,La Plaine,43.6117514115113,3.81463337953702,0,S3344
S3345,,Le Labournas,43.6145403198444,3.80058814136301,1,
842,25130,Le Labournas,43.6145403198444,3.80058814136301,0,S3345
863,25230,Le Labournas,43.6144221578344,3.80068409529937,0,S3345
S3346,,Le Martinet,43.6340837136982,3.80324279009331,1,
838,25125,Le Martinet,43.6340837136982,3.80324279009331,0,S3346
S3347,,Les Thermes,43.6218554922438,3.80009505232772,1,
844,25132,Les Thermes,43.6218554922438,3.80009505232772,0,S3347
865,25232,Les Thermes,43.621856495887,3.80002083167668,0,S3347
S3348,,Luminaire,43.6079914784399,3.81084941715938,1,
829,25105,Luminaire,43.6079914784399,3.81084941715938,0,S3348
853,25213,Luminaire,43.6078453377763,3.8110188453731,0,S3348
S3349,,Marjories,43.6098035361488,3.8078279711143,1,
830,25106,Marjories,43.6098035361488,3.8078279711143,0,S3349
852,25212,Marjories,43.6097049465149,3.80714498398612,0,S3349
S3350,,Mélanie,43.6306638805927,3.79820443901082,1,
835,25116,Mélanie,43.6306638805927,3.79820443901082,0,S3350
847,25202,Mélanie,43.6307630664802,3.79818222493652,0,S3350
S3351,,Récantou,43.6130768596766,3.81565747742886,1,
825,25101,Récantou,43.6130768596766,3.81565747742886,0,S3351
857,25217,Récantou,43.6130017564324,3.81589061076884,0,S3351
S3352,,Rivière,43.609877379271,3.81559938420182,1,
827,25103,Rivière,43.609877379271,3.81559938420182,0,S3352
855,25215,Rivière,43.609570153063,3.81571514801705,0,S3352
S3353,,Route de Saint-Georges,43.6127725432074,3.80896846839708,1,
832,25108,Route de Saint-Georges,43.6127725432074,3.80896846839708,0,S3353
850,25210,Route de Saint-Georges,43.6128366258617,3.8088835128565,0,S3353
S3354,,Terres du Sud,43.6185412453029,3.79188063779574,1,
843,25131,Terres du Sud,43.6185412453029,3.79188063779574,0,S3354
864,25231,Terres du Sud,43.6185412453029,3.79188063779574,0,S3354
S3355,,Valat de la Fosse,43.610526571974,3.80555777966357,1,
831,25107,Valat de la Fosse,43.610526571974,3.80555777966357,0,S3355
851,25211,Valat de la Fosse,43.6106833695032,3.80526488384338,0,S3355
S3356,,Village,43.6247859622184,3.79944001776514,1,
833,25114,Village,43.6247859622184,3.79944001776514,0,S3356
849,25204,Village,43.6247145719778,3.79940106420553,0,S3356
S3357,,Boirargues,43.5827431376295,3.92553702357343,1,
1286,43149,Boirargues,43.5827431376295,3.92553702357343,0,S3357
1296,43209,Boirargues,43.5827424111593,3.92558646860367,0,S3357
S3358,,Centre,43.5705033490628,3.90432699564591,1,
584,18125,Centre,43.5705033490628,3.90432699564591,0,S3358
1316,43259,Centre,43.5707492411912,3.90534755848525,0,S3358
S3359,,Céreirède,43.5812171650791,3.89822771467656,1,
558,17102,Céreirède,43.5812171650791,3.89822771467656,0,S3359
569,17220,Céreirède,43.5813126190581,3.89846527518945,0,S3359
S3360,,Chemin de Lattes,43.5723996223071,3.89628059130463,1,
559,17103,Chemin de Lattes,43.5723996223071,3.89628059130463,0,S3360
568,17219,Chemin de Lattes,43.5730755976848,3.89678123693295,0,S3360
S3361,,Cimetière Saint-Laurent,43.5697549965989,3.89889129323391,1,
574,18101,Cimetière Saint-Laurent,43.5697549965989,3.89889129323391,0,S3361
587,18208,Cimetière Saint-Laurent,43.569725360299,3.89907593436057,0,S3361
S3362,,Cougourlude,43.5713566155736,3.91426615862094,1,
1291,43161,Cougourlude,43.5713566155736,3.91426615862094,0,S3362
1317,43261,Cougourlude,43.5713390045051,3.91424094494377,0,S3362
S3363,,Crédit Agricole,43.5588112816511,3.87658965476744,1,
577,18115,Crédit Agricole,43.5588112816511,3.87658965476744,0,S3363
593,18227,Crédit Agricole,43.5588960263507,3.87631999550174,0,S3363
884,27113,Crédit Agricole,43.5588960263507,3.87631999550174,0,S3363
887,27201,Crédit Agricole,43.558820267506,3.87658989680211,0,S3363
S3364,,Entreprises,43.5641941760398,3.87923181001022,1,
582,18123,Entreprises,43.5641941760398,3.87923181001022,0,S3364
588,18219,Entreprises,43.5640669630444,3.87932727430571,0,S3364
883,27104,Entreprises,43.5641941760398,3.87923181001022,0,S3364
888,27210,Entreprises,43.5640669630444,3.87932727430571,0,S3364
S3365,,Gramenet,43.5488187026357,3.89453748467952,1,
566,17217,Gramenet,43.5488187026357,3.89453748467952,0,S3365
S3366,,Hauts de la Lironde,43.5750808812682,3.92269034967663,1,
1290,43159,Hauts de la Lironde,43.5750808812682,3.92269034967663,0,S3366
1318,43263,Hauts de la Lironde,43.5750801561041,3.92273978811309,0,S3366
S3367,,Mairie,43.5686691569199,3.90435087205778,1,
576,18103,Mairie,43.5686691569199,3.90435087205778,0,S3367
585,18206,Mairie,43.5684755889832,3.90406121087847,0,S3367
S3368,,Manse,43.5700138791788,3.87835033685807,1,
882,27103,Manse,43.5700138791788,3.87835033685807,0,S3368
889,27211,Manse,43.5699220814049,3.87848385822727,0,S3368
S3369,,Méjean,43.5682895137399,3.90014936726589,1,
575,18102,Méjean,43.5682895137399,3.90014936726589,0,S3369
586,18207,Méjean,43.5684785744035,3.90012981213954,0,S3369
S3370,,Montouzères,43.5686955467274,3.88505268682093,1,
579,18119,Montouzères,43.5686955467274,3.88505268682093,0,S3370
590,18223,Montouzères,43.5685903704709,3.88486439108746,0,S3370
S3371,,Montpellieret,43.5598726765439,3.8771744983394,1,
578,18118,Montpellieret,43.5598726765439,3.8771744983394,0,S3371
581,18122,Montpellieret,43.5599290567292,3.87700296047471,0,S3371
589,18222,Montpellieret,43.5598726765439,3.8771744983394,0,S3371
592,18226,Montpellieret,43.5599290567292,3.87700296047471,0,S3371
S3372,,Oasis Palavasienne,43.555499136353,3.89256881703337,1,
560,17104,Oasis Palavasienne,43.555499136353,3.89256881703337,0,S3372
567,17218,Oasis Palavasienne,43.5552593698877,3.89361291428774,0,S3372
S3373,,Saint-Pierre,43.5724932565199,3.89352597585097,1,
580,18121,Saint-Pierre,43.5724932565199,3.89352597585097,0,S3373
591,18224,Saint-Pierre,43.5724049989197,3.89341229619823,0,S3373
S3374,,Ancienne Gare,43.5892099567357,3.80111413147178,1,
1125,38106,Ancienne Gare,43.5892099567357,3.80111413147178,0,S3374
1135,38206,Ancienne Gare,43.5891400754636,3.80096393287992,0,S3374
S3375,,La Capoulière,43.5861106363036,3.8089122757797,1,
1121,38102,La Capoulière,43.5861106363036,3.8089122757797,0,S3375
1131,38202,La Capoulière,43.5863199092235,3.80938760270303,0,S3375
S3376,,La Croix,43.5849471639195,3.80721283528826,1,
1122,38103,La Croix,43.5849471639195,3.80721283528826,0,S3376
1132,38203,La Croix,43.5849712648,3.80742368471963,0,S3376
S3377,,Les Serres,43.5855519880196,3.80371629934474,1,
1123,38104,Les Serres,43.5855519880196,3.80371629934474,0,S3377
1133,38204,Les Serres,43.585435335099,3.80370093821759,0,S3377
S3378,,Mas de Lépôt,43.5868003219458,3.79849245408404,1,
1126,38107,Mas de Lépôt,43.5868003219458,3.79849245408404,0,S3378
1136,38207,Mas de Lépôt,43.586657377854,3.79842696371861,0,S3378
S3379,,Mas la Farouch,43.5871047212252,3.80256894068827,1,
1124,38105,Mas la Farouch,43.5871047212252,3.80256894068827,0,S3379
1134,38205,Mas la Farouch,43.587025185705,3.80246796560446,0,S3379
S3380,,Camp du Soleil,43.7493779054865,3.96058182813622,1,
1076,36156,Camp du Soleil,43.7493779054865,3.96058182813622,0,S3380
1116,36259,Camp du Soleil,43.7495029802379,3.96063500273693,0,S3380
S3381,,École,43.7498857473799,3.95608171980787,1,
1075,36155,École,43.7498857473799,3.95608171980787,0,S3381
1117,36260,École,43.7498209872493,3.9562039062155,0,S3381
S3382,,Église,43.7511733905913,3.95655241565616,1,
1108,36250,Église,43.7511733905913,3.95655241565616,0,S3382
S3383,,Aqueduc,43.6536849834474,3.85707302395963,1,
741,23104,Aqueduc,43.6536849834474,3.85707302395963,0,S3383
785,23224,Aqueduc,43.6535773186152,3.85705777478756,0,S3383
S3384,,Baillarguet,43.6777166136888,3.86718921325335,1,
752,23115,Baillarguet,43.6777166136888,3.86718921325335,0,S3384
774,23213,Baillarguet,43.6773137871345,3.86706692831838,0,S3384
S3385,,Chemin du Cambas,43.6589409071051,3.850241630011,1,
743,23106,Chemin du Cambas,43.6589409071051,3.850241630011,0,S3385
783,23222,Chemin du Cambas,43.6587241905234,3.85031017830425,0,S3385
S3386,,Chemin Neuf,43.6670769879061,3.85856917459521,1,
748,23111,Chemin Neuf,43.6670769879061,3.85856917459521,0,S3386
778,23217,Chemin Neuf,43.6673291357507,3.85853874559877,0,S3386
S3387,,Cirad de Baillarguet,43.6838078456874,3.87699052510713,1,
762,23125,Cirad de Baillarguet,43.6838078456874,3.87699052510713,0,S3387
791,23233,Cirad de Baillarguet,43.6838344536627,3.87701601962849,0,S3387
S3388,,Distillerie,43.6752963962588,3.86732247530793,1,
751,23114,Distillerie,43.6752963962588,3.86732247530793,0,S3388
775,23214,Distillerie,43.6751083759528,3.86726788706267,0,S3388
S3389,,Font de Salomé,43.676576539873,3.87151867101168,1,
766,23133,Font de Salomé,43.676576539873,3.87151867101168,0,S3389
792,23237,Font de Salomé,43.6766424290713,3.87130987300005,0,S3389
S3390,,Font du Noyer,43.6658835328596,3.8526425122086,1,
747,23110,Font du Noyer,43.6658835328596,3.8526425122086,0,S3390
779,23218,Font du Noyer,43.665973745893,3.85262014034861,0,S3390
S3391,,Fontaine des Chênes,43.662519485339,3.84698064375089,1,
745,23108,Fontaine des Chênes,43.662519485339,3.84698064375089,0,S3391
781,23220,Fontaine des Chênes,43.6616965219556,3.84733036142145,0,S3391
S3392,,La Grand Font,43.6689547517464,3.86120767327656,1,
749,23112,La Grand Font,43.6689547517464,3.86120767327656,0,S3392
777,23216,La Grand Font,43.6687722017368,3.86012532305176,0,S3392
S3393,,La Lironde,43.6603103419532,3.84874246872834,1,
744,23107,La Lironde,43.6603103419532,3.84874246872834,0,S3393
782,23221,La Lironde,43.6599384335912,3.84898027191771,0,S3393
S3394,,Mas de Gué,43.657282150098,3.85185686243152,1,
742,23105,Mas de Gué,43.657282150098,3.85185686243152,0,S3394
784,23223,Mas de Gué,43.6572023099813,3.85178044972201,0,S3394
S3395,,Picadou,43.6691896412202,3.86240289359509,1,
750,23113,Picadou,43.6691896412202,3.86240289359509,0,S3395
776,23215,Picadou,43.6690153926238,3.86137029578767,0,S3395
S3396,,Picheyrou,43.6531803897381,3.86035302618285,1,
740,23103,Picheyrou,43.6531803897381,3.86035302618285,0,S3396
786,23225,Picheyrou,43.6530903501489,3.86036300410523,0,S3396
S3397,,Quatre Chemins,43.6650827388391,3.84625590736722,1,
746,23109,Quatre Chemins,43.6650827388391,3.84625590736722,0,S3397
780,23219,Quatre Chemins,43.6649897519127,3.84583239562169,0,S3397
S3398,,Rapatel,43.6516428529494,3.86419963214759,1,
739,23102,Rapatel,43.6516428529494,3.86419963214759,0,S3398
787,23226,Rapatel,43.6514341461787,3.86497405030621,0,S3398
S3399,,Agropolis,43.6467354791926,3.86857463844225,1,
190,05165,Agropolis,43.6467354791926,3.86857463844225,0,S3399
207,05280,Agropolis,43.6464311646413,3.86847981293678,0,S3399
208,05281,Agropolis,43.6464220030625,3.86849194703528,0,S3399
S3400,,Aiguelongue,43.6263957511812,3.88218671856429,1,
185,05136,Aiguelongue,43.6263957511812,3.88218671856429,0,S3400
205,05236,Aiguelongue,43.6267837525389,3.88208583796042,0,S3400
1223,42147,Aiguelongue,43.6262207438229,3.88311015145899,0,S3400
1244,42223,Aiguelongue,43.6262568658232,3.88309875403403,0,S3400
S3401,,Aiguelongue (Jussieu),43.6384122435896,3.8830195027053,1,
491,11201,Aiguelongue (Jussieu),43.6384122435896,3.8830195027053,0,S3401
S3402,,Albert Einstein,43.6131461320041,3.93713481321889,1,
511,12118,Albert Einstein,43.6131461320041,3.93713481321889,0,S3402
520,12203,Albert Einstein,43.6132286533042,3.93702576897348,0,S3402
S3403,,Alco,43.6255832627692,3.84031117591848,1,
83,03135,Alco,43.6255832627692,3.84031117591848,0,S3403
90,03201,Alco,43.6258279063947,3.83952559337348,0,S3403
S3404,,Alfred Nobel,43.6164184164071,3.91078413583713,1,
514,12125,Alfred Nobel,43.6164184164071,3.91078413583713,0,S3404
531,12220,Alfred Nobel,43.6157518349011,3.90963978499191,0,S3404
S3405,,Alpilles,43.6302231184207,3.87919619492214,1,
483,11115,Alpilles,43.6302231184207,3.87919619492214,0,S3405
497,11208,Alpilles,43.6297773209993,3.87956781957508,0,S3405
S3406,,Ambroise Paré,43.6380121390239,3.84769396815333,1,
46,02125,Ambroise Paré,43.6380121390239,3.84769396815333,0,S3406
S3407,,Anatole France,43.6055685075168,3.8763779114993,1,
44,01236,Anatole France,43.6055685075168,3.8763779114993,0,S3407
S3408,,André Malraux,43.6194095977056,3.90041039087255,1,
357,09126,André Malraux,43.6194095977056,3.90041039087255,0,S3408
372,09202,André Malraux,43.6195016047928,3.90026441974371,0,S3408
S3409,,Antennes,43.6447440345659,3.84199188635127,1,
48,02127,Antennes,43.6447440345659,3.84199188635127,0,S3409
57,02205,Antennes,43.6446775150869,3.84225010122023,0,S3409
S3410,,Antigone,43.6085859594197,3.88666594937517,1,
1162,41139,Antigone,43.6085859594197,3.88666594937517,0,S3410
1181,41217,Antigone,43.6086044632931,3.88662933610549,0,S3410
S3411,,Antoine-Laurent de Jussieu,43.6372759965417,3.88011703757505,1,
488,11121,Antoine-Laurent de Jussieu,43.6372759965417,3.88011703757505,0,S3411
492,11202,Antoine-Laurent de Jussieu,43.6372419916179,3.8799799606667,0,S3411
S3412,,Apollo,43.6219442262782,3.90912972875351,1,
365,09142,Apollo,43.6219442262782,3.90912972875351,0,S3412
367,09145,Apollo,43.621890487853,3.90849713777414,0,S3412
S3413,,Apothicaires,43.6416055356031,3.83493987782508,1,
87,03139,Apothicaires,43.6416055356031,3.83493987782508,0,S3413
117,03232,Apothicaires,43.6416377135151,3.83521305556596,0,S3413
S3414,,Appel du 18 Juin,43.6365468360809,3.83020264138175,1,
556,16202,Appel du 18 Juin,43.6365468360809,3.83020264138175,0,S3414
S3415,,Astruc,43.6101901656071,3.85467816669653,1,
1274,43117,Astruc,43.6101901656071,3.85467816669653,0,S3415
1308,43241,Astruc,43.6102413067142,3.85487747840306,0,S3415
S3416,,Avenue de l'Agriculture,43.6121045511517,3.86110085609429,1,
351,09117,Avenue de l'Agriculture,43.6121045511517,3.86110085609429,0,S3416
381,09211,Avenue de l'Agriculture,43.6121868214637,3.86100407185305,0,S3416
S3417,,Avenue de Toulouse,43.5913323896995,3.85771442792373,1,
216,06106,Avenue de Toulouse,43.5913323896995,3.85771442792373,0,S3417
237,06215,Avenue de Toulouse,43.5918215839685,3.85808612377915,0,S3417
S3418,,Bagatelle,43.5953757808545,3.84436480129148,1,
134,04142,Bagatelle,43.5953757808545,3.84436480129148,0,S3418
166,04244,Bagatelle,43.5950546909237,3.84418316658468,0,S3418
S3419,,Beaux-Arts,43.6169999109354,3.88355341465341,1,
1221,42143,Beaux-Arts,43.6169999109354,3.88355341465341,0,S3419
1246,42227,Beaux-Arts,43.6170184138744,3.88351679498035,0,S3419
S3420,,Bellevue,43.5966406633686,3.88087471266643,1,
505,12108,Bellevue,43.5966406633686,3.88087471266643,0,S3420
S3421,,Belvédère,43.6169960788129,3.84239895036123,1,
343,09109,Belvédère,43.6169960788129,3.84239895036123,0,S3421
389,09219,Belvédère,43.6172625705801,3.84262869919216,0,S3421
S3422,,Bengalis,43.628614285569,3.88295220055258,1,
403,10105,Bengalis,43.628614285569,3.88295220055258,0,S3422
448,10215,Bengalis,43.6286569192906,3.88311424453413,0,S3422
S3423,,Berthelot,43.6018471907335,3.86938737434033,1,
174,05118,Berthelot,43.6018471907335,3.86938737434033,0,S3423
199,05214,Berthelot,43.6021286154052,3.86982788605477,0,S3423
S3424,,Boulevard des Sports,43.6193551147235,3.88921030305554,1,
317,08113,Boulevard des Sports,43.6193551147235,3.88921030305554,0,S3424
335,08211,Boulevard des Sports,43.6194176635163,3.88923675162121,0,S3424
S3425,,Boutonnet,43.6225867509347,3.8680877655281,1,
1154,41123,Boutonnet,43.6225867509347,3.8680877655281,0,S3425
1189,41233,Boutonnet,43.6225952120886,3.86812511668937,0,S3425
S3426,,Bugarel,43.5915561656051,3.84494425689963,1,
433,10156,Bugarel,43.5915561656051,3.84494425689963,0,S3426
473,10256,Bugarel,43.591736923076,3.84487482010559,0,S3426
S3427,,Caducée,43.6435606549666,3.83267627625175,1,
806,24123,Caducée,43.6435606549666,3.83267627625175,0,S3427
822,24223,Caducée,43.6435017759786,3.83303372976024,0,S3427
S3428,,Cairons,43.6433131323169,3.86073340358782,1,
180,05128,Cairons,43.6433131323169,3.86073340358782,0,S3428
192,05203,Cairons,43.6430245198712,3.86079997402942,0,S3428
S3429,,Campus Agropolis,43.645043570404,3.8687025534487,1,
540,13103,Campus Agropolis,43.645043570404,3.8687025534487,0,S3429
541,13104,Campus Agropolis,43.6450342336826,3.86872706214249,0,S3429
543,13203,Campus Agropolis,43.6446723752334,3.86952202196614,0,S3429
544,13204,Campus Agropolis,43.6446657885406,3.86871717455537,0,S3429
S3430,,Carriéra,43.6408274435792,3.81897583911978,1,
26,01143,Carriéra,43.6408274435792,3.81897583911978,0,S3430
32,01208,Carriéra,43.6407611486776,3.81922168893267,0,S3430
S3431,,Castelle,43.5866601695928,3.87218308669473,1,
171,05102,Castelle,43.5866601695928,3.87218308669473,0,S3431
200,05228,Castelle,43.586645532011,3.87194772066992,0,S3431
S3432,,Catalpas,43.5928145861454,3.88377682088568,1,
530,12215,Catalpas,43.5928145861454,3.88377682088568,0,S3432
S3433,,Celleneuve,43.6160378798381,3.82589254164288,1,
412,10119,Celleneuve,43.6160378798381,3.82589254164288,0,S3433
440,10201,Celleneuve,43.6159756561869,3.8258414265172,0,S3433
1268,43105,Celleneuve,43.6153633920295,3.82591207529301,0,S3433
1314,43253,Celleneuve,43.6156061939827,3.82590603272639,0,S3433
S3434,,Centrayrargues,43.5968223270964,3.88074356117271,1,
527,12210,Centrayrargues,43.5968223270964,3.88074356117271,0,S3434
S3435,,Cervantès,43.6221500652771,3.85505793217425,1,
251,07109,Cervantès,43.6221500652771,3.85505793217425,0,S3435
298,07222,Cervantès,43.62290426136,3.85448399409253,0,S3435
S3436,,Cévennes,43.622101506859,3.84632017448228,1,
81,03130,Cévennes,43.622101506859,3.84632017448228,0,S3436
92,03203,Cévennes,43.6220220100698,3.84621907657979,0,S3436
S3437,,Chambéry,43.5992820586981,3.88914725652822,1,
312,08105,Chambéry,43.5992820586981,3.88914725652822,0,S3437
341,08220,Chambéry,43.5988957676535,3.88975524434921,0,S3437
S3438,,Chantecler,43.6325382549738,3.87823144945291,1,
484,11116,Chantecler,43.6325382549738,3.87823144945291,0,S3438
496,11207,Chantecler,43.6322957994405,3.87821252699571,0,S3438
S3439,,Charles Flahault,43.6184121915158,3.86641672825558,1,
187,05140,Charles Flahault,43.6184121915158,3.86641672825558,0,S3439
S3440,,Chasseurs,43.603296902876,3.85647429022312,1,
123,04111,Chasseurs,43.603296902876,3.85647429022312,0,S3440
159,04230,Chasseurs,43.6033074525232,3.85636323597415,0,S3440
S3441,,Château d'Ô,43.6313091492569,3.8429372640989,1,
89,03141,Château d'Ô,43.6313091492569,3.8429372640989,0,S3441
247,07104,Château d'Ô,43.6319278012724,3.84240900812595,0,S3441
304,07231,Château d'Ô,43.6312910042157,3.84294916203496,0,S3441
1149,41113,Château d'Ô,43.6314418794986,3.84308928447609,0,S3441
1194,41243,Château d'Ô,43.6314152645895,3.8430638291649,0,S3441
S3442,,Cheng-Du,43.5939299820511,3.84296611938874,1,
118,04102,Cheng-Du,43.5939299820511,3.84296611938874,0,S3442
164,04239,Cheng-Du,43.5933203314842,3.84349425493372,0,S3442
S3443,,Cimetière Saint-Étienne,43.6150021543412,3.93564015498458,1,
512,12119,Cimetière Saint-Étienne,43.6150021543412,3.93564015498458,0,S3443
519,12202,Cimetière Saint-Étienne,43.6148946865643,3.93561239984086,0,S3443
S3444,,Cinq Chalets,43.6085913727849,3.89879046096751,1,
369,09147,Cinq Chalets,43.6085913727849,3.89879046096751,0,S3444
377,09207,Cinq Chalets,43.6085913727849,3.89879046096751,0,S3444
S3445,,Cinsaults,43.6205866570557,3.85692200803573,1,
77,03124,Cinsaults,43.6205866570557,3.85692200803573,0,S3445
96,03207,Cinsaults,43.6205227100907,3.85699455152902,0,S3445
S3446,,Cité de l'Arme,43.5932884503901,3.88960283133899,1,
67,03108,Cité de l'Arme,43.5932884503901,3.88960283133899,0,S3446
106,03220,Cité de l'Arme,43.593626969366,3.88919150114047,0,S3446
S3447,,Cité Gély,43.6048637001943,3.85948498523428,1,
124,04112,Cité Gély,43.6048637001943,3.85948498523428,0,S3447
158,04229,Cité Gély,43.6046636307651,3.85900955998146,0,S3447
S3448,,Cité Mion,43.6013411253374,3.88472519310408,1,
71,03112,Cité Mion,43.6013411253374,3.88472519310408,0,S3448
102,03216,Cité Mion,43.6005142244277,3.88471515714753,0,S3448
S3449,,Cité Roger,43.6203876328334,3.85829025192189,1,
253,07111,Cité Roger,43.6203876328334,3.85829025192189,0,S3449
296,07219,Cité Roger,43.6203929662818,3.85855025330807,0,S3449
S3450,,Cité Valette,43.6014644725049,3.85188570320761,1,
121,04109,Cité Valette,43.6014644725049,3.85188570320761,0,S3450
161,04232,Cité Valette,43.6015451751709,3.85190021372498,0,S3450
S3451,,Claret,43.6057879422227,3.8621570367761,1,
125,04113,Claret,43.6057879422227,3.8621570367761,0,S3451
157,04228,Claret,43.6057905576391,3.86197154012588,0,S3451
S3452,,Clolus,43.6287845637636,3.88110038986704,1,
482,11114,Clolus,43.6287845637636,3.88110038986704,0,S3452
498,11209,Clolus,43.6284943529922,3.88127818213281,0,S3452
S3453,,CNRS,43.638669057151,3.86557310803822,1,
178,05126,CNRS,43.638669057151,3.86557310803822,0,S3453
194,05205,CNRS,43.6385233517366,3.86570536659303,0,S3453
S3454,,Collège Camille Claudel,43.616396600225,3.86209392082106,1,
254,07113,Collège Camille Claudel,43.616396600225,3.86209392082106,0,S3454
295,07218,Collège Camille Claudel,43.616485416877,3.86217053335742,0,S3454
S3455,,Collège des Aiguerelles,43.5982761169694,3.89096298648582,1,
311,08104,Collège des Aiguerelles,43.5982761169694,3.89096298648582,0,S3455
342,08221,Collège des Aiguerelles,43.5975759338822,3.8921437714252,0,S3455
S3456,,Collège Marcel Pagnol,43.5974251903495,3.84566817422767,1,
135,04143,Collège Marcel Pagnol,43.5974251903495,3.84566817422767,0,S3456
165,04242,Collège Marcel Pagnol,43.5969648066472,3.84516124965975,0,S3456
S3457,,Colverts,43.6137694888596,3.89816495391895,1,
354,09123,Colverts,43.6137694888596,3.89816495391895,0,S3457
375,09205,Colverts,43.6137074779732,3.89810139405042,0,S3457
S3458,,Comédie,43.6083711439975,3.87968246864816,1,
1159,41133,Comédie,43.6083711439975,3.87968246864816,0,S3458
1184,41223,Comédie,43.6083614522908,3.87973169370189,0,S3458
S3459,,Comté de Nice,43.6386154294246,3.81177626426823,1,
19,01133,Comté de Nice,43.6386154294246,3.81177626426823,0,S3459
28,01203,Comté de Nice,43.6388927807871,3.81121403614904,0,S3459
S3460,,Comté de Toulouse,43.6369934180738,3.81929714824016,1,
15,01127,Comté de Toulouse,43.6369934180738,3.81929714824016,0,S3460
34,01210,Comté de Toulouse,43.6368282660755,3.81888439588706,0,S3460
S3461,,Coquelicots,43.5977822668519,3.88024998820092,1,
526,12209,Coquelicots,43.5977822668519,3.88024998820092,0,S3461
S3462,,Corse,43.6402291952432,3.8107781709194,1,
18,01132,Corse,43.6402291952432,3.8107781709194,0,S3462
29,01204,Corse,43.6406702650638,3.81139610551269,0,S3462
S3463,,Corum,43.6144112236254,3.8822707505569,1,
133,04141,Corum,43.6144112236254,3.8822707505569,0,S3463
1158,41131,Corum,43.6142538878797,3.88195716825633,0,S3463
1185,41225,Corum,43.6143069220478,3.88202046807643,0,S3463
1220,42141,Corum,43.6143004086941,3.88184706980008,0,S3463
1247,42229,Corum,43.6142642871554,3.8818584656304,0,S3463
S3464,,Craponne,43.6061963367803,3.86761126860044,1,
550,15105,Craponne,43.6061963367803,3.86761126860044,0,S3464
S3465,,Croix d'Argent,43.5923683239865,3.86648631655454,1,
1209,42115,Croix d'Argent,43.5923683239865,3.86648631655454,0,S3465
1258,42255,Croix d'Argent,43.5923690234347,3.86643686245552,0,S3465
S3466,,Croix de Lavit,43.6394858796913,3.83934045235758,1,
807,24124,Croix de Lavit,43.6394858796913,3.83934045235758,0,S3466
823,24224,Croix de Lavit,43.6393870282479,3.8393378507251,0,S3466
S3467,,Croix des Rosiers,43.6106736505957,3.83092421343876,1,
268,07128,Croix des Rosiers,43.6106736505957,3.83092421343876,0,S3467
281,07203,Croix des Rosiers,43.6108871668368,3.83043491439047,0,S3467
S3468,,Croix du Capitaine,43.6020847950035,3.86657331709502,1,
291,07214,Croix du Capitaine,43.6020847950035,3.86657331709502,0,S3468
S3469,,Demeter,43.5830183634967,3.87225836260884,1,
516,12131,Demeter,43.5830183634967,3.87225836260884,0,S3469
534,12228,Demeter,43.5835224590908,3.87221007629706,0,S3469
S3470,,Descartes,43.5966835558757,3.88353524757264,1,
528,12211,Descartes,43.5966835558757,3.88353524757264,0,S3470
S3471,,Domaine de la Pompignane,43.6217700400651,3.90626637638223,1,
366,09143,Domaine de la Pompignane,43.6217700400651,3.90626637638223,0,S3471
396,09238,Domaine de la Pompignane,43.6217736431459,3.90663771640475,0,S3471
S3472,,Doria,43.612493581044,3.86792851848614,1,
293,07216,Doria,43.612493581044,3.86792851848614,0,S3472
S3473,,Du Guesclin,43.6071156106586,3.88324864623093,1,
1161,41138,Du Guesclin,43.6071156106586,3.88324864623093,0,S3473
1182,41218,Du Guesclin,43.6071251271782,3.88321178951546,0,S3473
S3474,,École d'Architecture,43.6377261295196,3.85912366565802,1,
223,06119,École d'Architecture,43.6377261295196,3.85912366565802,0,S3474
231,06204,École d'Architecture,43.6374032491893,3.85970919747395,0,S3474
S3475,,Écossais,43.6373838835043,3.85980770441427,1,
222,06118,Écossais,43.6373838835043,3.85980770441427,0,S3475
S3476,,Érables,43.6149952618542,3.8569092924624,1,
349,09115,Érables,43.6149952618542,3.8569092924624,0,S3476
383,09213,Érables,43.614911604712,3.85710503483649,0,S3476
S3477,,Ernest Renan,43.6154554066865,3.88531808174664,1,
314,08110,Ernest Renan,43.6154554066865,3.88531808174664,0,S3477
338,08214,Ernest Renan,43.6154388503513,3.88521864675839,0,S3477
S3478,,Espérance,43.6141125001356,3.84998173280646,1,
346,09112,Espérance,43.6141125001356,3.84998173280646,0,S3478
386,09216,Espérance,43.6143648149583,3.84929553416725,0,S3478
S3479,,Estanove,43.5977309307216,3.84823669591361,1,
212,06102,Estanove,43.5977309307216,3.84823669591361,0,S3479
241,06220,Estanove,43.5979291452278,3.84820483184196,0,S3479
S3480,,Estragon,43.6186897221808,3.88796719199086,1,
316,08112,Estragon,43.6186897221808,3.88796719199086,0,S3480
336,08212,Estragon,43.6185938877927,3.88775423180446,0,S3480
S3481,,Étoile,43.6052264621904,3.85478131856996,1,
261,07120,Étoile,43.6052264621904,3.85478131856996,0,S3481
288,07211,Étoile,43.6051452390963,3.8548039020248,0,S3481
S3482,,Ettore Bugatti,43.5784396439918,3.86676884440674,1,
438,10162,Ettore Bugatti,43.5784396439918,3.86676884440674,0,S3482
457,10232,Ettore Bugatti,43.5785132809911,3.86664716373637,0,S3482
S3483,,Eugène Bataillon,43.6314787970079,3.86099924989302,1,
220,06116,Eugène Bataillon,43.6314787970079,3.86099924989302,0,S3483
233,06206,Eugène Bataillon,43.6317126897647,3.86034952784365,0,S3483
S3484,,Eurêka,43.6180002968696,3.91265907079507,1,
513,12124,Eurêka,43.6180002968696,3.91265907079507,0,S3484
532,12222,Eurêka,43.6178867188952,3.91243320698787,0,S3484
S3485,,Euromédecine,43.6388125036604,3.82757584744842,1,
54,02202,Euromédecine,43.6388125036604,3.82757584744842,0,S3485
805,24122,Euromédecine,43.6396836365219,3.82829178211235,0,S3485
818,24211,Euromédecine,43.6389507291512,3.82928764626628,0,S3485
1147,41109,Euromédecine,43.6389727270998,3.82769143492461,0,S3485
1196,41247,Euromédecine,43.638999857086,3.82767976521226,0,S3485
S3486,,Évariste Galois,43.609269176775,3.9121831151654,1,
362,09139,Évariste Galois,43.609269176775,3.9121831151654,0,S3486
522,12205,Évariste Galois,43.6090259907386,3.91283212152562,0,S3486
S3487,,Fac de Lettres,43.6301202658164,3.86998536762087,1,
176,05124,Fac de Lettres,43.6301202658164,3.86998536762087,0,S3487
196,05207,Fac de Lettres,43.6304333375576,3.86946158621049,0,S3487
S3488,,Fac de Pharmacie,43.6235950644405,3.86161794682938,1,
408,10111,Fac de Pharmacie,43.6235950644405,3.86161794682938,0,S3488
453,10224,Fac de Pharmacie,43.6244738173732,3.86305217852267,0,S3488
S3489,,Figairasse,43.6071932322163,3.85042937597188,1,
262,07121,Figairasse,43.6071932322163,3.85042937597188,0,S3489
287,07210,Figairasse,43.6070477218546,3.85054923351732,0,S3489
S3490,,Figuerolles,43.6064502168869,3.86427783378151,1,
156,04227,Figuerolles,43.6064502168869,3.86427783378151,0,S3490
553,15216,Figuerolles,43.6064026664479,3.86446213082698,0,S3490
S3491,,Font Couverte,43.5933485674699,3.85176943315045,1,
214,06104,Font Couverte,43.5933485674699,3.85176943315045,0,S3491
239,06218,Font Couverte,43.5935849781639,3.85157780704473,0,S3491
S3492,,Font Trouvé,43.6269367131124,3.84769793461971,1,
249,07107,Font Trouvé,43.6269367131124,3.84769793461971,0,S3492
301,07225,Font Trouvé,43.627033836132,3.84782426104482,0,S3492
S3493,,Foyer des Aubes,43.6184591455252,3.89463047977174,1,
319,08118,Foyer des Aubes,43.6184591455252,3.89463047977174,0,S3493
332,08206,Foyer des Aubes,43.6185005146602,3.89487908731948,0,S3493
S3494,,François Couperin,43.6127220678064,3.90283795378972,1,
479,11104,François Couperin,43.6127220678064,3.90283795378972,0,S3494
501,11219,François Couperin,43.612882419269,3.90355997076415,0,S3494
S3495,,François Dezeuze,43.6086800917722,3.84566856385133,1,
263,07122,François Dezeuze,43.6086800917722,3.84566856385133,0,S3495
286,07209,François Dezeuze,43.608595951492,3.84654472896969,0,S3495
S3496,,Françoise,43.6199568052202,3.89113229456896,1,
334,08210,Françoise,43.6199568052202,3.89113229456896,0,S3496
547,14110,Françoise,43.619945686636,3.89128048302267,0,S3496
S3497,,Frédéric Bazille,43.6027043748847,3.88054379500569,1,
557,16206,Frédéric Bazille,43.6027043748847,3.88054379500569,0,S3497
S3498,,Frédéric Fabrèges,43.597358550259,3.88662111976752,1,
69,03110,Frédéric Fabrèges,43.597358550259,3.88662111976752,0,S3498
104,03218,Frédéric Fabrèges,43.5973786483705,3.8864732327555,0,S3498
S3499,,Frédéric Peysson,43.6025294161159,3.8802050647848,1,
523,12206,Frédéric Peysson,43.6025294161159,3.8802050647848,0,S3499
S3500,,Galéra,43.6365896801354,3.83620694010024,1,
803,24118,Galéra,43.6365896801354,3.83620694010024,0,S3500
820,24218,Galéra,43.6365081161518,3.83625430874425,0,S3500
S3501,,Gambetta,43.6066567276748,3.87191645156823,1,
7,01104,Gambetta,43.6066567276748,3.87191645156823,0,S3501
42,01234,Gambetta,43.6072608273034,3.87052234193997,0,S3501
S3502,,Garcia Lorca,43.5911671394424,3.89021305241502,1,
66,03107,Garcia Lorca,43.5911671394424,3.89021305241502,0,S3502
107,03221,Garcia Lorca,43.590908674834,3.89005760969797,0,S3502
1282,43137,Garcia Lorca,43.5910407295796,3.89087748719573,0,S3502
1300,43221,Garcia Lorca,43.5910673324132,3.89090294678733,0,S3502
S3503,,Gardioles,43.6250682154211,3.85081655732953,1,
250,07108,Gardioles,43.6250682154211,3.85081655732953,0,S3503
299,07223,Gardioles,43.6247101114775,3.85199507880577,0,S3503
S3504,,Gare Saint-Roch,43.6049706716887,3.87921949262933,1,
1,00017,Gare Saint-Roch,43.6049706716887,3.87921949262933,0,S3504
2,00018,Gare Saint-Roch,43.6046380115575,3.87859196514145,0,S3504
4,00021,Gare Saint-Roch,43.604132144047,3.87813296304905,0,S3504
1160,41135,Gare Saint-Roch,43.6057394168241,3.8801557150493,0,S3504
1183,41221,Gare Saint-Roch,43.6057660224829,3.88018117619871,0,S3504
1279,43127,Gare Saint-Roch,43.605351081248,3.87965038044627,0,S3504
1303,43231,Gare Saint-Roch,43.6052434235599,3.87963510162042,0,S3504
S3505,,Garigliano,43.6187964617273,3.89742383610729,1,
320,08119,Garigliano,43.6187964617273,3.89742383610729,0,S3505
331,08205,Garigliano,43.6186104269434,3.8972331425441,0,S3505
S3506,,Garosud (Jeune Parque),43.5804681845903,3.87079252397409,1,
170,05101,Garosud (Jeune Parque),43.5804681845903,3.87079252397409,0,S3506
181,05131,Garosud (Jeune Parque),43.5809836236162,3.86931010408987,0,S3506
182,05132,Garosud (Jeune Parque),43.5808280580288,3.86950378368088,0,S3506
476,10260,Garosud (Jeune Parque),43.5807348176937,3.86910558059649,0,S3506
S3507,,Gascogne,43.6343243200791,3.86002314517298,1,
221,06117,Gascogne,43.6343243200791,3.86002314517298,0,S3507
232,06205,Gascogne,43.63438879211,3.85991346959803,0,S3507
S3508,,Gémeaux,43.633261953472,3.82262867124248,1,
12,01124,Gémeaux,43.633261953472,3.82262867124248,0,S3508
37,01213,Gémeaux,43.6319550216383,3.82222336214138,0,S3508
S3509,,Georges Brassens,43.5956976021853,3.86244423762293,1,
227,06126,Georges Brassens,43.5956976021853,3.86244423762293,0,S3509
244,06226,Georges Brassens,43.5958769762589,3.86247376554408,0,S3509
S3510,,Georges Danton,43.5996429627203,3.84327754641707,1,
120,04106,Georges Danton,43.5996429627203,3.84327754641707,0,S3510
162,04235,Georges Danton,43.5994607952854,3.84280269517864,0,S3510
S3511,,Georges Frêche Hôtel de Ville,43.5993167421199,3.89486304181729,1,
1284,43141,Georges Frêche Hôtel de Ville,43.5993167421199,3.89486304181729,0,S3511
1298,43217,Georges Frêche Hôtel de Ville,43.5993528646136,3.89485165719292,0,S3511
S3512,,Georges Méliès,43.6066844481333,3.92296160350557,1,
364,09141,Georges Méliès,43.6066844481333,3.92296160350557,0,S3512
398,09241,Georges Méliès,43.6067940942977,3.92284093319964,0,S3512
S3513,,Glycines,43.6118862819209,3.86382933605826,1,
352,09118,Glycines,43.6118862819209,3.86382933605826,0,S3513
380,09210,Glycines,43.6120030178798,3.86320146212474,0,S3513
S3514,,Goélands,43.6161682854052,3.90324178866189,1,
414,10122,Goélands,43.6161682854052,3.90324178866189,0,S3514
455,10230,Goélands,43.6165014908657,3.90320143362655,0,S3514
S3515,,Gouara,43.6030643418636,3.86277705922043,1,
259,07118,Gouara,43.6030643418636,3.86277705922043,0,S3515
290,07213,Gouara,43.6030384299099,3.86270214400029,0,S3515
S3516,,Grammont,43.6141228044854,3.93065391429186,1,
518,12201,Grammont,43.6141228044854,3.93065391429186,0,S3516
S3517,,Grèzes,43.60964016409,3.82764338704021,1,
269,07129,Grèzes,43.60964016409,3.82764338704021,0,S3517
280,07202,Grèzes,43.6097283229193,3.82776940652927,0,S3517
S3518,,Guglielmo Marconi,43.6114517263899,3.91231754982244,1,
415,10123,Guglielmo Marconi,43.6114517263899,3.91231754982244,0,S3518
454,10229,Guglielmo Marconi,43.61186418833,3.91239079037532,0,S3518
S3519,,Guillaume Janvier,43.5976454091688,3.864561933285,1,
218,06109,Guillaume Janvier,43.5976454091688,3.864561933285,0,S3519
235,06212,Guillaume Janvier,43.5970985693637,3.86381752569076,0,S3519
S3520,,Gustave Eiffel,43.6092551368515,3.83274287185258,1,
267,07127,Gustave Eiffel,43.6092551368515,3.83274287185258,0,S3520
282,07204,Gustave Eiffel,43.6087780994685,3.83343556300822,0,S3520
S3521,,Halles de la Paillade,43.6274778911626,3.81765165501266,1,
22,01137,Halles de la Paillade,43.6274778911626,3.81765165501266,0,S3521
45,01240,Halles de la Paillade,43.627865324708,3.8175874480338,0,S3521
1144,41103,Halles de la Paillade,43.6275697871031,3.81750552997029,0,S3521
1199,41253,Halles de la Paillade,43.6275702949051,3.81746841608473,0,S3521
S3522,,Hauts de Massane,43.636166291186,3.82258047914887,1,
13,01125,Hauts de Massane,43.636166291186,3.82258047914887,0,S3522
36,01212,Hauts de Massane,43.6361277972316,3.82276514072818,0,S3522
1146,41107,Hauts de Massane,43.6363704329782,3.82277145576433,0,S3522
1197,41249,Hauts de Massane,43.6363711124573,3.82272196301699,0,S3522
S3523,,Hélios,43.6010230298201,3.88559485359729,1,
339,08218,Hélios,43.6010230298201,3.88559485359729,0,S3523
S3524,,Henri Dunant,43.6268703093627,3.86904418370386,1,
407,10110,Henri Dunant,43.6268703093627,3.86904418370386,0,S3524
444,10210,Henri Dunant,43.6267982434541,3.8690546255953,0,S3524
S3525,,Henri Marès,43.6201672442613,3.85413902453448,1,
78,03125,Henri Marès,43.6201672442613,3.85413902453448,0,S3525
95,03206,Henri Marès,43.6201017379391,3.85432289671413,0,S3525
S3526,,Henri René,43.6031682633384,3.88205317273247,1,
327,08132,Henri René,43.6031682633384,3.88205317273247,0,S3526
S3527,,Hippolyte Rech,43.6201474515514,3.86512679044356,1,
186,05138,Hippolyte Rech,43.6201474515514,3.86512679044356,0,S3527
206,05238,Hippolyte Rech,43.6196920205441,3.86554769658461,0,S3527
S3528,,Hôpital Lapeyronie,43.6316510467744,3.85257532406546,1,
1151,41117,Hôpital Lapeyronie,43.6316510467744,3.85257532406546,0,S3528
1192,41239,Hôpital Lapeyronie,43.6316686730378,3.85260054534845,0,S3528
S3529,,Hortus,43.6432228158704,3.86012441140254,1,
183,05133,Hortus,43.6432228158704,3.86012441140254,0,S3529
201,05230,Hortus,43.6429753736315,3.85982070888433,0,S3529
S3530,,Hôtel du Département,43.6220697534915,3.83502136043073,1,
271,07132,Hôtel du Département,43.6220697534915,3.83502136043073,0,S3530
1270,43109,Hôtel du Département,43.6218017033289,3.83490295770799,0,S3530
1312,43249,Hôtel du Département,43.6220241364681,3.83506966179401,0,S3530
S3531,,Industrie,43.584752059771,3.88181485642237,1,
62,03103,Industrie,43.584752059771,3.88181485642237,0,S3531
111,03225,Industrie,43.5847270443913,3.88167814746025,0,S3531
S3532,,Iris,43.5990755198292,3.88536887880921,1,
70,03111,Iris,43.5990755198292,3.88536887880921,0,S3532
103,03217,Iris,43.5987514886261,3.885397204296,0,S3532
S3533,,Irissou,43.5939466330712,3.85271292945651,1,
565,17135,Irissou,43.5939466330712,3.85271292945651,0,S3533
573,17235,Irissou,43.593883556711,3.85272362436007,0,S3533
S3534,,Jacques Prévert,43.6423416052145,3.81408835537943,1,
17,01131,Jacques Prévert,43.6423416052145,3.81408835537943,0,S3534
30,01205,Jacques Prévert,43.6422605572119,3.81409863693408,0,S3534
S3535,,Jasse de Maurin,43.5795569359663,3.86276762755702,1,
420,10138,Jasse de Maurin,43.5795569359663,3.86276762755702,0,S3535
472,10254,Jasse de Maurin,43.5797255771975,3.86292051620198,0,S3535
S3536,,Jean Bart,43.6255835516352,3.83769999140521,1,
273,07137,Jean Bart,43.6255835516352,3.83769999140521,0,S3536
S3537,,Jean Calvin,43.6186642209244,3.84590760127084,1,
411,10114,Jean Calvin,43.6186642209244,3.84590760127084,0,S3537
441,10205,Jean Calvin,43.6185743575433,3.84590522667721,0,S3537
S3538,,Jean Mermoz,43.6126025565135,3.88929896484559,1,
126,04116,Jean Mermoz,43.6126025565135,3.88929896484559,0,S3538
451,10220,Jean Mermoz,43.612996593382,3.88877764763235,0,S3538
S3539,,Jean Mirailhet,43.5961288185895,3.89212911298444,1,
310,08103,Jean Mirailhet,43.5961288185895,3.89212911298444,0,S3539
416,10125,Jean Mirailhet,43.5968243984061,3.89251912721603,0,S3539
S3540,,Jean Vachet,43.5923482992442,3.88495154836371,1,
517,12134,Jean Vachet,43.5923482992442,3.88495154836371,0,S3540
537,12234,Jean Vachet,43.5928278831133,3.88536033119258,0,S3540
S3541,,Jeu de Mail des Abbés,43.6202104463057,3.8840982200545,1,
1222,42145,Jeu de Mail des Abbés,43.6202104463057,3.8840982200545,0,S3541
1245,42225,Jeu de Mail des Abbés,43.6202111538231,3.88404874205847,0,S3541
S3542,,Jules Guesde,43.6114734587923,3.84648469366853,1,
1273,43115,Jules Guesde,43.6114734587923,3.84648469366853,0,S3542
1309,43243,Jules Guesde,43.6115073328732,3.84663405649798,0,S3542
S3543,,La Gaillarde,43.6162513784556,3.857722246641,1,
88,03140,La Gaillarde,43.6162513784556,3.857722246641,0,S3543
116,03231,La Gaillarde,43.616282918047,3.85867583532559,0,S3543
S3544,,La Martelle,43.6073176935561,3.82656832293054,1,
270,07131,La Martelle,43.6073176935561,3.82656832293054,0,S3544
279,07201,La Martelle,43.6066435507389,3.82656311214596,0,S3544
S3545,,La Pile,43.6173183294404,3.86811973689509,1,
74,03119,La Pile,43.6173183294404,3.86811973689509,0,S3545
99,03211,La Pile,43.6171433298036,3.8677809580574,0,S3545
S3546,,La Rauze,43.5934705270149,3.8956930946039,1,
1283,43139,La Rauze,43.5934705270149,3.8956930946039,0,S3546
1299,43219,La Rauze,43.5935143880322,3.89576850263152,0,S3546
S3547,,La Source,43.6210466975256,3.85681050975855,1,
252,07110,La Source,43.6210466975256,3.85681050975855,0,S3547
297,07221,La Source,43.6216600735185,3.85602249207943,0,S3547
S3548,,Lagoya,43.6121709930806,3.9061263315752,1,
423,10146,Lagoya,43.6121709930806,3.9061263315752,0,S3548
467,10249,Lagoya,43.6121564290982,3.90589085173028,0,S3548
S3549,,Las Cazes,43.616103313823,3.8471143819564,1,
345,09111,Las Cazes,43.616103313823,3.8471143819564,0,S3549
387,09217,Las Cazes,43.6165324032967,3.8466431672768,0,S3549
S3550,,Las Rébès,43.6208021348586,3.84924328826401,1,
80,03129,Las Rébès,43.6208021348586,3.84924328826401,0,S3550
93,03204,Las Rébès,43.6207307627791,3.84920427516281,0,S3550
S3551,,Las Sorbès,43.6151585360101,3.85488444807347,1,
348,09114,Las Sorbès,43.6151585360101,3.85488444807347,0,S3551
384,09214,Las Sorbès,43.6152734487993,3.85502360694067,0,S3551
S3552,,Lavalette,43.6377348431733,3.86933577192312,1,
188,05161,Lavalette,43.6377348431733,3.86933577192312,0,S3552
210,05284,Lavalette,43.6375575674507,3.86915772114732,0,S3552
S3553,,Lavandin,43.6003463922959,3.85148495381712,1,
561,17131,Lavandin,43.6003463922959,3.85148495381712,0,S3553
S3554,,Le Grand M,43.5909717821731,3.85458812505853,1,
215,06105,Le Grand M,43.5909717821731,3.85458812505853,0,S3554
238,06216,Le Grand M,43.5906117784029,3.85525879036367,0,S3554
462,10244,Le Grand M,43.5911057065614,3.85465352215637,0,S3554
S3555,,Lemasson,43.5937104131978,3.87327545449656,1,
1211,42119,Lemasson,43.5937104131978,3.87327545449656,0,S3555
1256,42251,Lemasson,43.5937370202297,3.87330090708024,0,S3555
S3556,,Léon Blum,43.6092604458886,3.89040820282274,1,
393,09234,Léon Blum,43.6092604458886,3.89040820282274,0,S3556
1163,41141,Léon Blum,43.6089133592868,3.89016369677972,0,S3556
1180,41215,Léon Blum,43.6089399626543,3.89018916400619,0,S3556
S3557,,Léon Cordès,43.6015907148623,3.88298774997794,1,
509,12112,Léon Cordès,43.6015907148623,3.88298774997794,0,S3557
S3558,,Lepic,43.6014070452941,3.86300493232419,1,
258,07117,Lepic,43.6014070452941,3.86300493232419,0,S3558
S3559,,Les Arceaux,43.6098956946996,3.86219250369623,1,
1275,43119,Les Arceaux,43.6098956946996,3.86219250369623,0,S3559
1307,43239,Les Arceaux,43.6099793607256,3.86199678596641,0,S3559
S3560,,Les Aubes,43.6136788353833,3.88884567796858,1,
546,14109,Les Aubes,43.6136788353833,3.88884567796858,0,S3560
549,14209,Les Aubes,43.6135815838487,3.8887316793859,0,S3560
1219,42139,Les Aubes,43.6139711840498,3.88851955268758,0,S3560
1248,42231,Les Aubes,43.6139548080509,3.88840775122509,0,S3560
S3561,,Les Bouisses,43.5993251472128,3.83509284038327,1,
276,07163,Les Bouisses,43.5993251472128,3.83509284038327,0,S3561
277,07164,Les Bouisses,43.5993251472128,3.83509284038327,0,S3561
278,07165,Les Bouisses,43.5985397484716,3.83533200074396,0,S3561
307,07261,Les Bouisses,43.5987552465326,3.83535002286381,0,S3561
400,10003,Les Bouisses,43.5963502466104,3.83699385906782,0,S3561
551,15114,Les Bouisses,43.5985578922206,3.83532010721021,0,S3561
1129,38200,Les Bouisses,43.5962954719026,3.83705426560027,0,S3561
S3562,,Les Pins,43.590965438245,3.87349846820293,1,
173,05104,Les Pins,43.590965438245,3.87349846820293,0,S3562
885,27114,Les Pins,43.5911458626373,3.87345384895569,0,S3562
S3563,,Les Roses,43.6025606787905,3.85448781446999,1,
122,04110,Les Roses,43.6025606787905,3.85448781446999,0,S3563
160,04231,Les Roses,43.6023443496639,3.85388829133743,0,S3563
S3564,,Louis Blanc,43.6147460835895,3.87833279432343,1,
1157,41129,Louis Blanc,43.6147460835895,3.87833279432343,0,S3564
1186,41227,Louis Blanc,43.614736216221,3.87839439343216,0,S3564
S3565,,Louis Lépine,43.6146278792328,3.91459521937689,1,
360,09137,Louis Lépine,43.6146278792328,3.91459521937689,0,S3565
394,09235,Louis Lépine,43.6147055077837,3.91482008144468,0,S3565
S3566,,Louis Ravaz,43.6200850643777,3.85230546399377,1,
79,03126,Louis Ravaz,43.6200850643777,3.85230546399377,0,S3566
85,03137,Louis Ravaz,43.6197106026762,3.85144171506991,0,S3566
94,03205,Louis Ravaz,43.6200064394645,3.8521425135668,0,S3566
114,03229,Louis Ravaz,43.6196663635916,3.85139104547153,0,S3566
S3567,,Louvain,43.6135139246229,3.8586886623758,1,
350,09116,Louvain,43.6135139246229,3.8586886623758,0,S3567
382,09212,Louvain,43.6133206890214,3.85900520415104,0,S3567
S3568,,Lucullus,43.5948225347089,3.88856844026861,1,
68,03109,Lucullus,43.5948225347089,3.88856844026861,0,S3568
105,03219,Lucullus,43.5946977939189,3.88849083951096,0,S3568
S3569,,Lycée Frédéric Bazille,43.6455571577945,3.86225411739591,1,
191,05202,Lycée Frédéric Bazille,43.6455571577945,3.86225411739591,0,S3569
539,13102,Lycée Frédéric Bazille,43.6449007956988,3.86226133682538,0,S3569
542,13202,Lycée Frédéric Bazille,43.6447836226638,3.8622829647471,0,S3569
S3570,,Lycée Georges Clemenceau,43.6030474392888,3.87159678912742,1,
175,05119,Lycée Georges Clemenceau,43.6030474392888,3.87159678912742,0,S3570
198,05213,Lycée Georges Clemenceau,43.6031371255808,3.87161156933615,0,S3570
S3571,,Lycée Jean Monnet,43.6239466290571,3.83451372964292,1,
306,07237,Lycée Jean Monnet,43.6239466290571,3.83451372964292,0,S3571
390,09226,Lycée Jean Monnet,43.623962547191,3.83466264657354,0,S3571
S3572,,Lycée Jules Ferry,43.6087094176474,3.84098047379125,1,
264,07124,Lycée Jules Ferry,43.6087094176474,3.84098047379125,0,S3572
285,07207,Lycée Jules Ferry,43.6086470295296,3.84094171591322,0,S3572
S3573,,Lycée Léonard de Vinci,43.6262395990625,3.8233864813467,1,
272,07136,Lycée Léonard de Vinci,43.6262395990625,3.8233864813467,0,S3573
305,07236,Lycée Léonard de Vinci,43.6264861412496,3.82310826394591,0,S3573
S3574,,Maison des Sports,43.6184281957958,3.8646476966565,1,
75,03120,Maison des Sports,43.6184281957958,3.8646476966565,0,S3574
98,03210,Maison des Sports,43.6183337125532,3.86433582336958,0,S3574
S3575,,Major Flandre,43.6270804078247,3.87261403434627,1,
406,10109,Major Flandre,43.6270804078247,3.87261403434627,0,S3575
445,10211,Major Flandre,43.626789739253,3.87409129860065,0,S3575
S3576,,Malbosc,43.6346185793054,3.8337787410841,1,
804,24121,Malbosc,43.6346185793054,3.8337787410841,0,S3576
821,24220,Malbosc,43.6346028309388,3.83361742383144,0,S3576
1148,41111,Malbosc,43.6345906749945,3.8331962785179,0,S3576
1195,41245,Malbosc,43.6346081347455,3.83323386788882,0,S3576
S3577,,Marché Gare,43.5838587086265,3.88582215427689,1,
63,03104,Marché Gare,43.5838587086265,3.88582215427689,0,S3577
110,03224,Marché Gare,43.5838285630334,3.88604393260801,0,S3577
S3578,,Maréchal Leclerc,43.5943315673444,3.88519082035123,1,
504,12106,Maréchal Leclerc,43.5943315673444,3.88519082035123,0,S3578
536,12231,Maréchal Leclerc,43.5942887608684,3.88504123606989,0,S3578
S3579,,Marie Caizergues,43.6212240874847,3.87542641257566,1,
204,05234,Marie Caizergues,43.6212240874847,3.87542641257566,0,S3579
489,11127,Marie Caizergues,43.6212869915203,3.87542810738973,0,S3579
S3580,,Marie Curie,43.6148395496496,3.83130540029117,1,
10,01114,Marie Curie,43.6148395496496,3.83130540029117,0,S3580
39,01224,Marie Curie,43.6147517362541,3.83115462710913,0,S3580
S3581,,Marie Durand,43.6183195422658,3.89807899528503,1,
356,09125,Marie Durand,43.6183195422658,3.89807899528503,0,S3581
373,09203,Marie Durand,43.6183673288716,3.89788231873107,0,S3581
S3582,,Martellière,43.6066899775183,3.83751283797397,1,
265,07125,Martellière,43.6066899775183,3.83751283797397,0,S3582
284,07206,Martellière,43.6071737551704,3.83828019885106,0,S3582
S3583,,Mas Argelliers,43.5868093352945,3.88943912542033,1,
65,03106,Mas Argelliers,43.5868093352945,3.88943912542033,0,S3583
108,03222,Mas Argelliers,43.5864911625409,3.8890594697363,0,S3583
S3584,,Mas de Bagnères,43.5868786438899,3.8586347092016,1,
432,10155,Mas de Bagnères,43.5868786438899,3.8586347092016,0,S3584
471,10253,Mas de Bagnères,43.5875102797689,3.85846602499,0,S3584
S3585,,Mas de Bellevue,43.6365070595409,3.81278627018709,1,
20,01134,Mas de Bellevue,43.6365070595409,3.81278627018709,0,S3585
27,01202,Mas de Bellevue,43.6371130378284,3.81251724810761,0,S3585
S3586,,Mas de Merle,43.6045080804015,3.85728587237362,1,
260,07119,Mas de Merle,43.6045080804015,3.85728587237362,0,S3586
289,07212,Mas de Merle,43.6043506212434,3.85761569208972,0,S3586
S3587,,Mas Drevon,43.5954674386514,3.86791750224146,1,
1210,42117,Mas Drevon,43.5954674386514,3.86791750224146,0,S3587
1257,42253,Mas Drevon,43.5954859359917,3.86788089130808,0,S3587
S3588,,Mas Saint-Pierre,43.5821086301202,3.87996267769651,1,
61,03102,Mas Saint-Pierre,43.5821086301202,3.87996267769651,0,S3588
112,03226,Mas Saint-Pierre,43.5817518243441,3.8803982165642,0,S3588
S3589,,Maurice Chauvet,43.6386436638714,3.85652395191788,1,
224,06120,Maurice Chauvet,43.6386436638714,3.85652395191788,0,S3589
230,06203,Maurice Chauvet,43.6385043496043,3.85684207595449,0,S3589
S3590,,Maurice Chevalier,43.6285798263215,3.88724577709418,1,
401,10103,Maurice Chevalier,43.6285798263215,3.88724577709418,0,S3590
450,10217,Maurice Chevalier,43.628268264615,3.88765810286778,0,S3590
S3591,,Millénaire,43.6034444255464,3.90843496228008,1,
418,10133,Millénaire,43.6034444255464,3.90843496228008,0,S3591
458,10233,Millénaire,43.6032091707317,3.90915836018176,0,S3591
1169,41153,Millénaire,43.6028806332787,3.91011422517616,0,S3591
1174,41203,Millénaire,43.6029075915366,3.91011496766347,0,S3591
S3592,,Mondial 98,43.6026172384494,3.90410725317879,1,
1168,41151,Mondial 98,43.6026172384494,3.90410725317879,0,S3592
1175,41205,Mondial 98,43.602644196743,3.90410799282751,0,S3592
S3593,,Monsieur Teste,43.6073852103855,3.83599705383341,1,
266,07126,Monsieur Teste,43.6073852103855,3.83599705383341,0,S3593
283,07205,Monsieur Teste,43.6069758571286,3.83634507709663,0,S3593
S3594,,Montmaur,43.6411470739613,3.86325036470027,1,
179,05127,Montmaur,43.6411470739613,3.86325036470027,0,S3594
193,05204,Montmaur,43.6404261480455,3.864010940994,0,S3594
S3595,,Mosson,43.6161290903821,3.81990628079244,1,
839,25126,Mosson,43.6161290903821,3.81990628079244,0,S3595
1143,41101,Mosson,43.6163194996841,3.81978749280886,0,S3595
1267,43103,Mosson,43.616223022779,3.81961176245642,0,S3595
1315,43255,Mosson,43.6162577816979,3.81969927757021,0,S3595
S3596,,Moularès (Hôtel de Ville),43.6007299548366,3.89535927969668,1,
1166,41147,Moularès (Hôtel de Ville),43.6007299548366,3.89535927969668,0,S3596
1177,41209,Moularès (Hôtel de Ville),43.6007378719135,3.89543371634385,0,S3596
S3597,,Moulin de Gasconnet,43.6339217418846,3.87450611961657,1,
486,11119,Moulin de Gasconnet,43.6339217418846,3.87450611961657,0,S3597
494,11204,Moulin de Gasconnet,43.6338309991395,3.87456556176909,0,S3597
S3598,,Muriers,43.6262060519225,3.84916365966573,1,
300,07224,Muriers,43.6262060519225,3.84916365966573,0,S3598
S3599,,Myrtes,43.6010747775961,3.86616279734264,1,
257,07116,Myrtes,43.6010747775961,3.86616279734264,0,S3599
S3600,,Nazareth,43.6216853966435,3.88027730699587,1,
184,05134,Nazareth,43.6216853966435,3.88027730699587,0,S3600
202,05232,Nazareth,43.6216496279571,3.88026396564836,0,S3600
S3601,,Nouveau Saint-Roch,43.5994929707284,3.87564516827548,1,
1213,42123,Nouveau Saint-Roch,43.5994929707284,3.87564516827548,0,S3601
1254,42247,Nouveau Saint-Roch,43.5995475912133,3.87559716042538,0,S3601
S3602,,Observatoire,43.6062629168428,3.87685436385639,1,
3,00020,Observatoire,43.6062629168428,3.87685436385639,0,S3602
51,02133,Observatoire,43.6064389353025,3.87648797097934,0,S3602
1278,43125,Observatoire,43.6064472174367,3.87653767936612,0,S3602
1304,43233,Observatoire,43.6065192829458,3.87652725063757,0,S3602
S3603,,Occitanie,43.6343581122312,3.84863696141071,1,
86,03138,Occitanie,43.6343581122312,3.84863696141071,0,S3603
113,03228,Occitanie,43.6346135344989,3.84837142414812,0,S3603
763,23130,Occitanie,43.634622866537,3.84834691659984,0,S3603
1150,41115,Occitanie,43.6346302977529,3.84845850910512,0,S3603
1193,41241,Occitanie,43.6346569114579,3.84848396836494,0,S3603
S3604,,Odysseum,43.6041206297931,3.92062653322998,1,
1170,41155,Odysseum,43.6041206297931,3.92062653322998,0,S3604
1173,41201,Odysseum,43.6041288916269,3.9206762459918,0,S3604
S3605,,Ormeaux,43.6020495221822,3.83375409130462,1,
275,07162,Ormeaux,43.6020495221822,3.83375409130462,0,S3605
308,07262,Ormeaux,43.6030089090294,3.83328441537796,0,S3605
S3606,,Oxford,43.6269461895049,3.82037286369424,1,
23,01138,Oxford,43.6269461895049,3.82037286369424,0,S3606
596,19202,Oxford,43.6270155369926,3.82056029899441,0,S3606
S3607,,Pablo Picasso,43.5978817223193,3.90334649118577,1,
1285,43145,Pablo Picasso,43.5978817223193,3.90334649118577,0,S3607
1297,43213,Pablo Picasso,43.5979421175295,3.90352132068884,0,S3607
S3608,,Paladilhe,43.612045606876,3.86718653369226,1,
256,07115,Paladilhe,43.612045606876,3.86718653369226,0,S3608
379,09209,Paladilhe,43.6123429616735,3.86650163928614,0,S3608
S3609,,Palissade,43.6074262128139,3.86963603622364,1,
503,11224,Palissade,43.6074262128139,3.86963603622364,0,S3609
S3610,,Palombes,43.6194859845483,3.89386654377238,1,
318,08116,Palombes,43.6194859845483,3.89386654377238,0,S3610
333,08208,Palombes,43.619735285097,3.89403420585313,0,S3610
S3611,,Pâquerettes,43.5996525843702,3.88147565333063,1,
507,12110,Pâquerettes,43.5996525843702,3.88147565333063,0,S3611
525,12208,Pâquerettes,43.5997761130627,3.88100893891673,0,S3611
S3612,,Parc de la Lironde,43.6086049433752,3.90654797245331,1,
422,10145,Parc de la Lironde,43.6086049433752,3.90654797245331,0,S3612
468,10250,Parc de la Lironde,43.6085247859529,3.90649628223077,0,S3612
S3613,,Parc Malbosc,43.6233929366949,3.83099713262187,1,
391,09227,Parc Malbosc,43.6233929366949,3.83099713262187,0,S3613
S3614,,Pas du Loup,43.6001236780564,3.84812682355374,1,
211,06101,Pas du Loup,43.6001236780564,3.84812682355374,0,S3614
242,06221,Pas du Loup,43.6004461447968,3.84885280875692,0,S3614
243,06222,Pas du Loup,43.6004461447968,3.84885280875692,0,S3614
S3615,,Passerines,43.5884276159416,3.87242845815497,1,
172,05103,Passerines,43.5884276159416,3.87242845815497,0,S3615
886,27115,Passerines,43.5880808453041,3.87215942534594,0,S3615
S3616,,Pastourelles,43.6220882999142,3.901671712448,1,
431,10154,Pastourelles,43.6220882999142,3.901671712448,0,S3616
470,10252,Pastourelles,43.6218353435453,3.9005139339348,0,S3616
S3617,,Patrice Lumumba,43.5788844592046,3.86455500174392,1,
430,10153,Patrice Lumumba,43.5788844592046,3.86455500174392,0,S3617
460,10242,Patrice Lumumba,43.5789404709457,3.86440811560615,0,S3617
S3618,,Paul Fajon,43.5951171451906,3.83775307792064,1,
132,04139,Paul Fajon,43.5951171451906,3.83775307792064,0,S3618
167,04246,Paul Fajon,43.5954646250803,3.83732929911734,0,S3618
552,15115,Paul Fajon,43.5951173167701,3.83774071371397,0,S3618
1128,38109,Paul Fajon,43.5963502466104,3.83699385906782,0,S3618
1138,38209,Paul Fajon,43.5962954719026,3.83705426560027,0,S3618
S3619,,Paul Painlevé,43.6111480844713,3.89853869912733,1,
353,09122,Paul Painlevé,43.6111480844713,3.89853869912733,0,S3619
376,09206,Paul Painlevé,43.6105273248078,3.89857121474418,0,S3619
S3620,,Pergola,43.6176378844592,3.83955756794993,1,
1271,43111,Pergola,43.6176378844592,3.83955756794993,0,S3620
1311,43247,Pergola,43.6181727167808,3.83923755077308,0,S3620
S3621,,Petit Bard,43.6146386270071,3.83543270115319,1,
9,01113,Petit Bard,43.6146386270071,3.83543270115319,0,S3621
40,01225,Petit Bard,43.614571018828,3.83512160415726,0,S3621
S3622,,Peyrou,43.6107658835538,3.87185368107145,1,
5,00106,Peyrou,43.6107658835538,3.87185368107145,0,S3622
52,02135,Peyrou,43.6109718648462,3.87190870595334,0,S3622
S3623,,Pic Saint-Loup,43.639183670985,3.85455779606223,1,
225,06121,Pic Saint-Loup,43.639183670985,3.85455779606223,0,S3623
229,06202,Pic Saint-Loup,43.6391238886662,3.85433339733278,0,S3623
S3624,,Pierre Cardenal,43.6387142508484,3.81902000249718,1,
25,01142,Pierre Cardenal,43.6387142508484,3.81902000249718,0,S3624
33,01209,Pierre Cardenal,43.6380070257379,3.81880359437587,0,S3624
S3625,,Pierre d'Adhémar,43.62216921338,3.86391868361458,1,
439,10163,Pierre d'Adhémar,43.62216921338,3.86391868361458,0,S3625
477,10263,Pierre d'Adhémar,43.622113025849,3.86407805141269,0,S3625
S3626,,Pierre de Coubertin,43.6374273470266,3.81451819963056,1,
21,01135,Pierre de Coubertin,43.6374273470266,3.81451819963056,0,S3626
24,01141,Pierre de Coubertin,43.6377398485236,3.81467482264076,0,S3626
S3627,,Pierre Laroque,43.6213936316369,3.90432559169825,1,
435,10159,Pierre Laroque,43.6213936316369,3.90432559169825,0,S3627
475,10259,Pierre Laroque,43.6211786789844,3.9042701931816,0,S3627
S3628,,Pierre Rouge,43.6230637530555,3.88259154399914,1,
481,11113,Pierre Rouge,43.6230637530555,3.88259154399914,0,S3628
499,11210,Pierre Rouge,43.6229384751649,3.88255102820205,0,S3628
S3629,,Pierre Viala,43.6174253755504,3.8541404197219,1,
84,03136,Pierre Viala,43.6174253755504,3.8541404197219,0,S3629
115,03230,Pierre Viala,43.6165864898749,3.85498427142864,0,S3629
S3630,,Pilory,43.6193982975347,3.83188253488683,1,
1269,43107,Pilory,43.6193982975347,3.83188253488683,0,S3630
1313,43251,Pilory,43.61957443555,3.83214699993398,0,S3630
S3631,,Pinsons,43.616954292775,3.88611351188639,1,
315,08111,Pinsons,43.616954292775,3.88611351188639,0,S3631
337,08213,Pinsons,43.6171944414844,3.88629325771688,0,S3631
S3632,,Pinville,43.6140504968765,3.90484168893734,1,
424,10147,Pinville,43.6140504968765,3.90484168893734,0,S3632
466,10248,Pinville,43.6138754334746,3.90451518505265,0,S3632
478,11103,Pinville,43.6138650561147,3.90585118228076,0,S3632
502,11220,Pinville,43.6139491773105,3.90624942940283,0,S3632
S3633,,Pioch de Boutonnet,43.6337981064534,3.8775104522385,1,
485,11117,Pioch de Boutonnet,43.6337981064534,3.8775104522385,0,S3633
495,11206,Pioch de Boutonnet,43.6339175711024,3.87732801737275,0,S3633
S3634,,Pitot,43.612090811667,3.87034272852489,1,
292,07215,Pitot,43.612090811667,3.87034272852489,0,S3634
S3635,,Place Albert 1er,43.6164493475913,3.87424603509102,1,
1156,41127,Place Albert 1er,43.6164493475913,3.87424603509102,0,S3635
1187,41229,Place Albert 1er,43.6164038890181,3.87428193165593,0,S3635
S3636,,Place Carnot,43.6033043854567,3.88385059559379,1,
326,08131,Place Carnot,43.6033043854567,3.88385059559379,0,S3636
1215,42129,Place Carnot,43.6038310309685,3.88411227333693,0,S3636
1252,42241,Place Carnot,43.6038306772025,3.88413700523998,0,S3636
S3637,,Place de France,43.6036895748809,3.91506008433915,1,
368,09146,Place de France,43.6036895748809,3.91506008433915,0,S3637
399,09246,Place de France,43.6036694375821,3.91520797762296,0,S3637
1171,41161,Place de France,43.603724580047,3.91574144647471,0,S3637
1200,41261,Place de France,43.6037518992763,3.91571745995785,0,S3637
S3638,,Place de l'Europe,43.6082966506284,3.89429145662823,1,
371,09149,Place de l'Europe,43.6082966506284,3.89429145662823,0,S3638
392,09232,Place de l'Europe,43.6074715265701,3.89415761386362,0,S3638
583,18124,Place de l'Europe,43.6081812548828,3.89418933635568,0,S3638
1164,41143,Place de l'Europe,43.6071866399633,3.89396427404087,0,S3638
1179,41213,Place de l'Europe,43.6073039939688,3.89393035868125,0,S3638
S3639,,Place de Strasbourg,43.6031697265646,3.88006154730388,1,
72,03115,Place de Strasbourg,43.6031697265646,3.88006154730388,0,S3639
S3640,,Place d'Italie,43.6417886577733,3.8183694776032,1,
16,01130,Place d'Italie,43.6417886577733,3.8183694776032,0,S3640
31,01206,Place d'Italie,43.6418610583305,3.8183342201987,0,S3640
S3641,,Place du 8 Mai,43.5999475517205,3.86704798913779,1,
228,06127,Place du 8 Mai,43.5999475517205,3.86704798913779,0,S3641
245,06227,Place du 8 Mai,43.599586464867,3.86651878660143,0,S3641
S3642,,Plan Cabanes,43.6081693355143,3.86857964595194,1,
555,15218,Plan Cabanes,43.6081693355143,3.86857964595194,0,S3642
1276,43121,Plan Cabanes,43.608637436434,3.86789938195901,0,S3642
1306,43237,Plan Cabanes,43.6085719073046,3.868083201233,0,S3642
S3643,,Plan des 4 Seigneurs,43.640844025545,3.85795656017386,1,
226,06123,Plan des 4 Seigneurs,43.640844025545,3.85795656017386,0,S3643
790,23232,Plan des 4 Seigneurs,43.6408110357181,3.85774524364199,0,S3643
S3644,,Pléiade,43.6284835496651,3.84572158120133,1,
248,07106,Pléiade,43.6284835496651,3.84572158120133,0,S3644
302,07226,Pléiade,43.6284453614805,3.84588145952179,0,S3644
S3645,,Pompignane,43.6122792097737,3.89490733504466,1,
1218,42137,Pompignane,43.6122792097737,3.89490733504466,0,S3645
1249,42233,Pompignane,43.6124501254217,3.89489962500101,0,S3645
S3646,,Port Marianne,43.6015763562532,3.89962538372382,1,
1167,41149,Port Marianne,43.6015763562532,3.89962538372382,0,S3646
1176,41207,Port Marianne,43.6015648147091,3.89917973718665,0,S3646
S3647,,Porto,43.6003857852008,3.87986264047073,1,
508,12111,Porto,43.6003857852008,3.87986264047073,0,S3647
524,12207,Porto,43.6003323975579,3.87982408849627,0,S3647
S3648,,Pous de la Sers,43.6191236326195,3.86186977958743,1,
76,03121,Pous de la Sers,43.6191236326195,3.86186977958743,0,S3648
97,03209,Pous de la Sers,43.619268188103,3.86118069486939,0,S3648
S3649,,Primevères,43.5981873165172,3.88147314342496,1,
506,12109,Primevères,43.5981873165172,3.88147314342496,0,S3649
S3650,,Puccini,43.595226565229,3.85439193885249,1,
564,17134,Puccini,43.595226565229,3.85439193885249,0,S3650
572,17234,Puccini,43.5951724747983,3.85440287084021,0,S3650
S3651,,Puech Villa,43.6400820065708,3.82939149156508,1,
50,02129,Puech Villa,43.6400820065708,3.82939149156508,0,S3651
55,02203,Puech Villa,43.6397089517698,3.82971595378058,0,S3651
S3652,,Raimbaud d'Orange,43.6374853024761,3.82079526176382,1,
14,01126,Raimbaud d'Orange,43.6374853024761,3.82079526176382,0,S3652
35,01211,Raimbaud d'Orange,43.637413743007,3.82142467102694,0,S3652
S3653,,Razeteurs,43.5956233398826,3.88412499227601,1,
529,12212,Razeteurs,43.5956233398826,3.88412499227601,0,S3653
S3654,,Renaudel,43.614640096864,3.8281698327723,1,
11,01115,Renaudel,43.614640096864,3.8281698327723,0,S3654
38,01223,Renaudel,43.6146038104899,3.8281936310748,0,S3654
S3655,,René Bougnol,43.6364430280063,3.87421507127824,1,
487,11120,René Bougnol,43.6364430280063,3.87421507127824,0,S3655
493,11203,René Bougnol,43.6364745563365,3.87389409785518,0,S3655
S3656,,Renouvier,43.6071219610824,3.86636182045032,1,
554,15217,Renouvier,43.6071219610824,3.86636182045032,0,S3656
S3657,,Restanque,43.5904166495416,3.8848744732649,1,
1281,43135,Restanque,43.5904166495416,3.8848744732649,0,S3657
1301,43223,Restanque,43.5904335598282,3.88494913850408,0,S3657
S3658,,Rièges,43.6197125397298,3.84937529505924,1,
410,10113,Rièges,43.6197125397298,3.84937529505924,0,S3658
442,10206,Rièges,43.6195789550144,3.8492851386416,0,S3658
S3659,,Rives du Lez,43.6040712861004,3.89493087057306,1,
1165,41145,Rives du Lez,43.6040712861004,3.89493087057306,0,S3659
1178,41211,Rives du Lez,43.6040171912106,3.89494176586073,0,S3659
1217,42133,Rives du Lez,43.6039440669125,3.89377691614059,0,S3659
1250,42237,Rives du Lez,43.6039889975652,3.89377814079108,0,S3659
S3660,,Ronceray,43.5937857012004,3.86032764487268,1,
217,06107,Ronceray,43.5937857012004,3.86032764487268,0,S3660
236,06214,Ronceray,43.5939382913426,3.86034408238654,0,S3660
S3661,,Rondelet,43.6040889251336,3.87485354148993,1,
197,05212,Rondelet,43.6040889251336,3.87485354148993,0,S3661
1214,42125,Rondelet,43.6030802177349,3.87624899612494,0,S3661
1253,42245,Rondelet,43.6030784578395,3.87637265425441,0,S3661
S3662,,Roqueturière,43.6303560744951,3.88562318226634,1,
402,10104,Roqueturière,43.6303560744951,3.88562318226634,0,S3662
449,10216,Roqueturière,43.629867625509,3.88583270790875,0,S3662
S3663,,Rouget de Lisle,43.5948005699349,3.83983506277174,1,
119,04103,Rouget de Lisle,43.5948005699349,3.83983506277174,0,S3663
163,04238,Rouget de Lisle,43.5945971519245,3.83959470779995,0,S3663
S3664,,Route de Ganges,43.6429532782356,3.84534892210135,1,
47,02126,Route de Ganges,43.6429532782356,3.84534892210135,0,S3664
58,02206,Route de Ganges,43.6428478543968,3.84517282910918,0,S3664
S3665,,Sabines,43.583789674407,3.86030846256513,1,
429,10152,Sabines,43.583789674407,3.86030846256513,0,S3665
461,10243,Sabines,43.5839494027178,3.85981806656449,0,S3665
1207,42111,Sabines,43.5839372825969,3.86004033803157,0,S3665
1260,42259,Sabines,43.5839111950111,3.85997781084598,0,S3665
S3666,,Saint Clément,43.6177413470572,3.8443983787052,1,
344,09110,Saint Clément,43.6177413470572,3.8443983787052,0,S3666
388,09218,Saint Clément,43.6177219955986,3.8444968569179,0,S3666
S3667,,Saint-Cléophas,43.5949296023676,3.87541093598868,1,
436,10160,Saint-Cléophas,43.5949296023676,3.87541093598868,0,S3667
437,10161,Saint-Cléophas,43.5965751167359,3.87538103721892,0,S3667
535,12230,Saint-Cléophas,43.5947084826503,3.87578841207307,0,S3667
1212,42121,Saint-Cléophas,43.5949905836087,3.87617944402288,0,S3667
1255,42249,Saint-Cléophas,43.5950092597076,3.87613047200401,0,S3667
S3668,,Saint-Denis,43.6050373963146,3.87453269224891,1,
6,00107,Saint-Denis,43.6050373963146,3.87453269224891,0,S3668
43,01235,Saint-Denis,43.6060111920569,3.87306199397269,0,S3668
1277,43123,Saint-Denis,43.6056690419268,3.87373320298287,0,S3668
1305,43235,Saint-Denis,43.6059623971558,3.87333284741337,0,S3668
S3669,,Saint-Éloi,43.6262789963953,3.86572404364717,1,
413,10120,Saint-Éloi,43.6262789963953,3.86572404364717,0,S3669
419,10136,Saint-Éloi,43.6262791711768,3.86571167277697,0,S3669
452,10223,Saint-Éloi,43.626387494846,3.86695213067227,0,S3669
459,10237,Saint-Éloi,43.6263786834231,3.86693951898018,0,S3669
538,13001,Saint-Éloi,43.6270105263017,3.86675843891466,0,S3669
1153,41121,Saint-Éloi,43.6269896171141,3.86569356800668,0,S3669
1190,41235,Saint-Éloi,43.6270072402572,3.86571879128006,0,S3669
S3670,,Saint Gabriel,43.6145904409991,3.85244424401871,1,
347,09113,Saint Gabriel,43.6145904409991,3.85244424401871,0,S3670
385,09215,Saint Gabriel,43.6145279047273,3.85177444453973,0,S3670
S3671,,Saint-Guilhem,43.6088095883643,3.87287745165915,1,
53,02140,Saint-Guilhem,43.6088095883643,3.87287745165915,0,S3671
59,02221,Saint-Guilhem,43.6087014026398,3.87289928579799,0,S3671
S3672,,Saint-Jaumes,43.6138232284326,3.87052534620828,1,
101,03213,Saint-Jaumes,43.6138232284326,3.87052534620828,0,S3672
S3673,,Saint-Jean,43.6154653182185,3.89776587646284,1,
355,09124,Saint-Jean,43.6154653182185,3.89776587646284,0,S3673
374,09204,Saint-Jean,43.615619689584,3.89765873563585,0,S3673
S3674,,Saint-Lazare,43.6273229872688,3.8890061481502,1,
428,10151,Saint-Lazare,43.6273229872688,3.8890061481502,0,S3674
463,10245,Saint-Lazare,43.6271517152071,3.88903861982039,0,S3674
1224,42149,Saint-Lazare,43.6266187470306,3.88859098242226,0,S3674
1243,42221,Saint-Lazare,43.6266460607155,3.88856697329696,0,S3674
S3675,,Saint-Martin,43.5922730822352,3.88015063500089,1,
1280,43133,Saint-Martin,43.5922730822352,3.88015063500089,0,S3675
1302,43225,Saint-Martin,43.5922630375671,3.88022457302336,0,S3675
S3676,,Saint-Maur,43.621014179754,3.89387108777002,1,
545,14106,Saint-Maur,43.621014179754,3.89387108777002,0,S3676
548,14111,Saint-Maur,43.6210379342734,3.89409447648366,0,S3676
S3677,,Saint-Michel,43.6061314907569,3.89856236821735,1,
370,09148,Saint-Michel,43.6061314907569,3.89856236821735,0,S3677
378,09208,Saint-Michel,43.6061314907569,3.89856236821735,0,S3677
S3678,,Saint-Paul,43.6305750189159,3.82124685919926,1,
594,19102,Saint-Paul,43.6305750189159,3.82124685919926,0,S3678
1145,41105,Saint-Paul,43.6306581031337,3.8210881264583,0,S3678
1198,41251,Saint-Paul,43.6306854019139,3.82106408334805,0,S3678
S3679,,Saint-Priest,43.6351553782076,3.84368235202323,1,
246,07101,Saint-Priest,43.6351553782076,3.84368235202323,0,S3679
303,07228,Saint-Priest,43.6344646270561,3.84357748056025,0,S3679
S3680,,Saint-Roch,43.6152010586818,3.86972097175336,1,
73,03118,Saint-Roch,43.6152010586818,3.86972097175336,0,S3680
100,03212,Saint-Roch,43.6152299449984,3.86958564222392,0,S3680
S3681,,Sainte-Catherine,43.626435807529,3.87622275116782,1,
405,10108,Sainte-Catherine,43.626435807529,3.87622275116782,0,S3681
446,10212,Sainte-Catherine,43.626270005736,3.87650291966564,0,S3681
S3682,,Sainte-Geneviève,43.6232363179595,3.84423407619641,1,
82,03131,Sainte-Geneviève,43.6232363179595,3.84423407619641,0,S3682
91,03202,Sainte-Geneviève,43.6230080395239,3.84448792059845,0,S3682
S3683,,Sainte-Odile,43.6226043725318,3.87318664271746,1,
203,05233,Sainte-Odile,43.6226043725318,3.87318664271746,0,S3683
490,11128,Sainte-Odile,43.6227685847907,3.87301781336488,0,S3683
S3684,,Sainte-Thérèse,43.6142855976438,3.8651678990776,1,
255,07114,Sainte-Thérèse,43.6142855976438,3.8651678990776,0,S3684
294,07217,Sainte-Thérèse,43.6141006302092,3.86553413665737,0,S3684
S3685,,Salaison,43.6233822986463,3.89735116328188,1,
321,08120,Salaison,43.6233822986463,3.89735116328188,0,S3685
330,08204,Salaison,43.6237950778361,3.89864945536279,0,S3685
S3686,,Samuel Morse,43.6063885552467,3.91306863594444,1,
363,09140,Samuel Morse,43.6063885552467,3.91306863594444,0,S3686
397,09239,Samuel Morse,43.6070303286057,3.91344512045481,0,S3686
S3687,,Saporta,43.5843102832752,3.88818403545391,1,
64,03105,Saporta,43.5843102832752,3.88818403545391,0,S3687
109,03223,Saporta,43.5835645015117,3.88753310337717,0,S3687
S3688,,Sémard,43.6191462999868,3.90307599089078,1,
358,09129,Sémard,43.6191462999868,3.90307599089078,0,S3688
359,09132,Sémard,43.6191662745309,3.90355912959453,0,S3688
425,10148,Sémard,43.6195115421514,3.90392745382065,0,S3688
465,10247,Sémard,43.6197137459128,3.90424235874107,0,S3688
S3689,,Soleiado,43.600668274279,3.88651299038078,1,
313,08106,Soleiado,43.600668274279,3.88651299038078,0,S3689
340,08219,Soleiado,43.6003285232027,3.8870109434519,0,S3689
S3690,,Sophie Germain,43.6050300445204,3.83534144174039,1,
274,07161,Sophie Germain,43.6050300445204,3.83534144174039,0,S3690
309,07263,Sophie Germain,43.6050729200871,3.8354910168735,0,S3690
S3691,,Stade de la Mosson,43.6212518122144,3.81737884035853,1,
1172,41163,Stade de la Mosson,43.6212518122144,3.81737884035853,0,S3691
1201,41263,Stade de la Mosson,43.6212967443061,3.81738000526255,0,S3691
S3692,,Stade Philippidès,43.618989362045,3.8694638115266,1,
1155,41125,Stade Philippidès,43.618989362045,3.8694638115266,0,S3692
1188,41231,Stade Philippidès,43.6189888364122,3.86950091936459,0,S3692
S3693,,TaM,43.5814097441408,3.87032316510245,1,
515,12130,TaM,43.5814097441408,3.87032316510245,0,S3693
533,12227,TaM,43.581404263872,3.87007570114867,0,S3693
S3694,,Tonnelles,43.6140541100597,3.8380404003282,1,
8,01112,Tonnelles,43.6140541100597,3.8380404003282,0,S3694
41,01226,Tonnelles,43.6138982532619,3.83825901379296,0,S3694
417,10129,Tonnelles,43.6131261758221,3.83883260297799,0,S3694
456,10231,Tonnelles,43.6133287397371,3.83913487394875,0,S3694
1272,43113,Tonnelles,43.6134870583418,3.8393864922483,0,S3694
1310,43245,Tonnelles,43.6136209942391,3.83945187947761,0,S3694
S3695,,Tournezy,43.5790815952633,3.87790247905316,1,
60,03101,Tournezy,43.5790815952633,3.87790247905316,0,S3695
S3696,,Tourterelles,43.6258097771277,3.87852008963558,1,
404,10107,Tourterelles,43.6258097771277,3.87852008963558,0,S3696
447,10213,Tourterelles,43.6257100464236,3.87857927433182,0,S3696
S3697,,Universités Sciences et Lettres,43.6291538619885,3.86139510694249,1,
219,06115,Universités Sciences et Lettres,43.6291538619885,3.86139510694249,0,S3697
234,06207,Universités Sciences et Lettres,43.6293747630475,3.86102971892555,0,S3697
1152,41119,Universités Sciences et Lettres,43.6291244626956,3.8615675881189,0,S3697
1191,41237,Universités Sciences et Lettres,43.6291602338901,3.8615809194992,0,S3697
S3698,,Uppsala,43.6294976517874,3.82180052803165,1,
595,19201,Uppsala,43.6294976517874,3.82180052803165,0,S3698
S3699,,Val d'Aurelle,43.6427249884188,3.83589768237642,1,
49,02128,Val d'Aurelle,43.6427249884188,3.83589768237642,0,S3699
56,02204,Val d'Aurelle,43.6428168126498,3.83640763454239,0,S3699
S3700,,Vauguières,43.6042098342509,3.90648904845312,1,
421,10144,Vauguières,43.6042098342509,3.90648904845312,0,S3700
469,10251,Vauguières,43.6044380891004,3.90686644908399,0,S3700
S3701,,Véga,43.5957074797539,3.84958084817903,1,
213,06103,Véga,43.5957074797539,3.84958084817903,0,S3701
240,06219,Véga,43.5956701515617,3.84967881073631,0,S3701
S3702,,Vert Bois,43.6353031499059,3.8683793182576,1,
177,05125,Vert Bois,43.6353031499059,3.8683793182576,0,S3702
195,05206,Vert Bois,43.6342201722793,3.86804083520621,0,S3702
S3703,,Vieille Poste,43.6105865871079,3.90006987785678,1,
480,11105,Vieille Poste,43.6105865871079,3.90006987785678,0,S3703
500,11218,Vieille Poste,43.6108074880023,3.90033574225849,0,S3703
S3704,,Villeneuve d'Angoulême,43.5887380443422,3.86574602237706,1,
1208,42113,Villeneuve d'Angoulême,43.5887380443422,3.86574602237706,0,S3704
1259,42257,Villeneuve d'Angoulême,43.5887387434499,3.86569657141145,0,S3704
S3705,,Vincent Auriol,43.6479666716656,3.86415078559688,1,
737,22266,Vincent Auriol,43.6479666716656,3.86415078559688,0,S3705
761,23124,Vincent Auriol,43.6506931562062,3.8646075483001,0,S3705
S3706,,Vivaldi,43.5969106763148,3.85609414159655,1,
563,17133,Vivaldi,43.5969106763148,3.85609414159655,0,S3706
571,17233,Vivaldi,43.5970181629534,3.85612173838912,0,S3706
S3707,,Voie Domitienne,43.6222653030138,3.85965199275044,1,
409,10112,Voie Domitienne,43.6222653030138,3.85965199275044,0,S3707
443,10207,Voie Domitienne,43.6226758194155,3.86050442315675,0,S3707
S3708,,Volta Fizeau,43.6138734599318,3.91331233086448,1,
361,09138,Volta Fizeau,43.6138734599318,3.91331233086448,0,S3708
395,09236,Volta Fizeau,43.613794386686,3.91318641827075,0,S3708
S3709,,Voltaire,43.6035533065908,3.88906539744448,1,
1216,42131,Voltaire,43.6035533065908,3.88906539744448,0,S3709
1251,42239,Voltaire,43.6035799101074,3.88909086176948,0,S3709
S3710,,Winston Churchill,43.5992598884724,3.85588448474994,1,
562,17132,Winston Churchill,43.5992598884724,3.85588448474994,0,S3710
570,17232,Winston Churchill,43.5993670280425,3.85593681242631,0,S3710
S3711,,Yves du Manoir,43.5914331835709,3.84860192209245,1,
434,10157,Yves du Manoir,43.5914331835709,3.84860192209245,0,S3711
474,10257,Yves du Manoir,43.5914371580579,3.84831756441027,0,S3711
S3712,,Zénith,43.6120774911651,3.93096801781037,1,
510,12117,Zénith,43.6120774911651,3.93096801781037,0,S3712
521,12204,Zénith,43.6122286146762,3.93108359031285,0,S3712
S3713,,Zoo,43.6399642433204,3.87314631500562,1,
189,05162,Zoo,43.6399642433204,3.87314631500562,0,S3713
209,05283,Zoo,43.6398838923997,3.87310701709227,0,S3713
S3714,,Bonadona,43.5556988234753,3.96566170060797,1,
896,28116,Bonadona,43.5556988234753,3.96566170060797,0,S3714
901,28203,Bonadona,43.5547325649882,3.96654883789795,0,S3714
S3715,,Cabanes de Pérols,43.5525489910486,3.96827877876301,1,
897,28117,Cabanes de Pérols,43.5525489910486,3.96827877876301,0,S3715
900,28202,Cabanes de Pérols,43.5511188213444,3.968930105126,0,S3715
S3716,,Croix du Languedoc,43.566616823893,3.9485534862777,1,
891,28111,Croix du Languedoc,43.566616823893,3.9485534862777,0,S3716
906,28208,Croix du Languedoc,43.5668014708263,3.94883067751801,0,S3716
S3717,,EcoPôle,43.5781554165651,3.93489368914411,1,
1287,43151,EcoPôle,43.5781554165651,3.93489368914411,0,S3717
1295,43207,EcoPôle,43.5781633062941,3.93496810185242,0,S3717
S3718,,Lauriers,43.5687009529306,3.94563269277718,1,
890,28110,Lauriers,43.5687009529306,3.94563269277718,0,S3718
907,28209,Lauriers,43.568799244624,3.94567254957003,0,S3718
S3719,,Parc Expo,43.5732929176614,3.94453788989593,1,
898,28125,Parc Expo,43.5732929176614,3.94453788989593,0,S3719
908,28225,Parc Expo,43.5733690109591,3.94486150332421,0,S3719
1288,43153,Parc Expo,43.5729914003502,3.94546909162006,0,S3719
1294,43205,Parc Expo,43.572981311176,3.94554299318903,0,S3719
S3720,,Pérols Centre,43.5630506390039,3.95018362938491,1,
892,28112,Pérols Centre,43.5630506390039,3.95018362938491,0,S3720
905,28207,Pérols Centre,43.5627592228126,3.95043500749049,0,S3720
1289,43155,Pérols Centre,43.565552992202,3.9571773613321,0,S3720
1293,43203,Pérols Centre,43.5655333536454,3.95728806877166,0,S3720
S3721,,Pérols Étang de l'Or,43.5580406963095,3.9635652386215,1,
1292,43201,Pérols Étang de l'Or,43.5580406963095,3.9635652386215,0,S3721
S3722,,Pérols Sud,43.5595582347704,3.9582930201244,1,
894,28114,Pérols Sud,43.5595582347704,3.9582930201244,0,S3722
903,28205,Pérols Sud,43.5598054814322,3.95799099717046,0,S3722
S3723,,Plein Sud,43.5711556335863,3.94196790511588,1,
899,28126,Plein Sud,43.5711556335863,3.94196790511588,0,S3723
909,28226,Plein Sud,43.5715387112948,3.94280704770848,0,S3723
S3724,,Radel,43.556831412586,3.96387692988203,1,
895,28115,Radel,43.556831412586,3.96387692988203,0,S3724
902,28204,Radel,43.5566596253575,3.96453952310822,0,S3724
S3725,,Saint-Jean,43.5610873391765,3.95222970657489,1,
893,28113,Saint-Jean,43.5610873391765,3.95222970657489,0,S3725
904,28206,Saint-Jean,43.5610163127537,3.95277161385895,0,S3725
S3726,,Coopérative Oléicole,43.5846567402591,3.75697350917955,1,
1051,36119,Coopérative Oléicole,43.5846567402591,3.75697350917955,0,S3726
1095,36218,Coopérative Oléicole,43.5846544673153,3.75714657967765,0,S3726
S3727,,Distillerie,43.5855686578199,3.7669016793678,1,
1047,36115,Distillerie,43.5855686578199,3.7669016793678,0,S3727
1099,36222,Distillerie,43.5854711165393,3.76680030690204,0,S3727
S3728,,Gaston Defferre,43.5842254619923,3.7528448748962,1,
1052,36120,Gaston Defferre,43.5842254619923,3.7528448748962,0,S3728
1094,36217,Gaston Defferre,43.5842679652565,3.75303141989369,0,S3728
S3729,,Jean Moulin,43.5826388466637,3.7518162986728,1,
1053,36121,Jean Moulin,43.5826388466637,3.7518162986728,0,S3729
1093,36216,Jean Moulin,43.582527775852,3.75206086319454,0,S3729
S3730,,La Bornière,43.5796402726444,3.75358445624969,1,
1055,36123,La Bornière,43.5796402726444,3.75358445624969,0,S3730
1091,36214,La Bornière,43.5795461986944,3.75390361662581,0,S3730
S3731,,Le Temple,43.5855110856342,3.76241122794081,1,
1049,36117,Le Temple,43.5855110856342,3.76241122794081,0,S3731
1097,36220,Le Temple,43.5855517795002,3.76273377017373,0,S3731
S3732,,Lotissement Les Violettes,43.5875582247138,3.76599922425541,1,
1048,36116,Lotissement Les Violettes,43.5875582247138,3.76599922425541,0,S3732
1098,36221,Lotissement Les Violettes,43.5876257034101,3.76633481783415,0,S3732
S3733,,Maison de Retraite,43.5812966310094,3.75065780671873,1,
1054,36122,Maison de Retraite,43.5812966310094,3.75065780671873,0,S3733
1092,36215,Maison de Retraite,43.5814325565664,3.75057461109793,0,S3733
S3734,,Médiathèque La Gare,43.5861447560049,3.76002792662739,1,
1050,36118,Médiathèque La Gare,43.5861447560049,3.76002792662739,0,S3734
S3735,,Saint-Martin de Vignogoul,43.5856951430908,3.78978286906922,1,
1127,38108,Saint-Martin de Vignogoul,43.5856951430908,3.78978286906922,0,S3735
1137,38208,Saint-Martin de Vignogoul,43.5856066094873,3.78968168579836,0,S3735
S3736,,Square Tribes,43.5840095978677,3.75970269549395,1,
1096,36219,Square Tribes,43.5840095978677,3.75970269549395,0,S3736
S3737,,Cave Coopérative,43.6944440058287,3.86232257997101,1,
757,23120,Cave Coopérative,43.6944440058287,3.86232257997101,0,S3737
769,23207,Cave Coopérative,43.6950027580546,3.86222601045443,0,S3737
S3738,,Coste Rousse,43.6947795098159,3.87039771499351,1,
765,23132,Coste Rousse,43.6947795098159,3.87039771499351,0,S3738
788,23230,Coste Rousse,43.6947583801295,3.87062017451685,0,S3738
S3739,,Ducque,43.6971916160294,3.8676622194541,1,
764,23131,Ducque,43.6971916160294,3.8676622194541,0,S3739
789,23231,Ducque,43.6972776336108,3.867937129467,0,S3739
S3740,,Frayssinet,43.6959612087004,3.8624746761768,1,
758,23121,Frayssinet,43.6959612087004,3.8624746761768,0,S3740
768,23206,Frayssinet,43.6966715168887,3.86246889509736,0,S3740
S3741,,Les Baronnes,43.693673551305,3.87231323887278,1,
760,23123,Les Baronnes,43.693673551305,3.87231323887278,0,S3741
S3742,,Mairie,43.6972565345328,3.86369885689509,1,
759,23122,Mairie,43.6972565345328,3.86369885689509,0,S3742
767,23201,Mairie,43.6973053926804,3.86405950269175,0,S3742
S3743,,Mandarine,43.6929354424852,3.86219550286906,1,
756,23119,Mandarine,43.6929354424852,3.86219550286906,0,S3743
770,23208,Mandarine,43.6932427377124,3.8620798202514,0,S3743
S3744,,Moulin Neuf,43.6903352935939,3.86233659026386,1,
755,23118,Moulin Neuf,43.6903352935939,3.86233659026386,0,S3744
771,23210,Moulin Neuf,43.6904263822631,3.86225230017191,0,S3744
S3745,,Pendances,43.6838600280543,3.86314208671443,1,
753,23116,Pendances,43.6838600280543,3.86314208671443,0,S3745
773,23212,Pendances,43.6841477783395,3.86313739760866,0,S3745
S3746,,Pont Vert,43.6867067342774,3.8633669198391,1,
754,23117,Pont Vert,43.6867067342774,3.8633669198391,0,S3746
772,23211,Pont Vert,43.6865453216254,3.86333782306496,0,S3746
S3747,,Le Mas,43.7215943543633,4.03580684860891,1,
950,31105,Le Mas,43.7215943543633,4.03580684860891,0,S3747
956,31205,Le Mas,43.7214446900414,4.03560403999703,0,S3747
S3748,,Mairie,43.7235452475241,4.03867916272428,1,
1023,35108,Mairie,43.7235452475241,4.03867916272428,0,S3748
1033,35207,Mairie,43.7236976304905,4.03870850654896,0,S3748
S3749,,Micocoulier,43.6668839413985,4.0296573625063,1,
922,29127,Micocoulier,43.6668839413985,4.0296573625063,0,S3749
938,29222,Micocoulier,43.6669087711918,4.02979433296822,0,S3749
S3750,,Olivette,43.665591204711,4.03183585596886,1,
923,29128,Olivette,43.665591204711,4.03183585596886,0,S3750
937,29221,Olivette,43.6654796879613,4.03206785054589,0,S3750
S3751,,Saint-Brès,43.6648851280403,4.0367315161038,1,
925,29130,Saint-Brès,43.6648851280403,4.0367315161038,0,S3751
S3752,,Sophoras,43.6680180706129,4.02669380919772,1,
921,29126,Sophoras,43.6680180706129,4.02669380919772,0,S3752
939,29223,Sophoras,43.668152478037,4.02672256016637,0,S3752
S3753,,Versant,43.6642724636242,4.03624265950085,1,
924,29129,Versant,43.6642724636242,4.03624265950085,0,S3753
S3754,,Les Mazes,43.7315319686515,3.98141167566906,1,
1077,36157,Les Mazes,43.7315319686515,3.98141167566906,0,S3754
1114,36257,Les Mazes,43.7315233579094,3.98138662967919,0,S3754
S3755,,Lotissement Les Lilas,43.7280521890848,3.96475996379462,1,
1071,36151,Lotissement Les Lilas,43.7280521890848,3.96475996379462,0,S3755
1109,36251,Lotissement Les Lilas,43.7280561501543,3.96509482193248,0,S3755
S3756,,Lotisssement Les Romarins,43.7294080220182,3.96965880597218,1,
1073,36153,Lotisssement Les Romarins,43.7294080220182,3.96965880597218,0,S3756
1112,36255,Lotisssement Les Romarins,43.7296499431564,3.97031044900102,0,S3756
S3757,,Mas de Bizard,43.7263026445607,3.98060373253866,1,
1078,36158,Mas de Bizard,43.7263026445607,3.98060373253866,0,S3757
1115,36258,Mas de Bizard,43.7263208059979,3.98059185861098,0,S3757
S3758,,Route de Teyran,43.7337692455794,3.97913277092653,1,
1113,36256,Route de Teyran,43.7337692455794,3.97913277092653,0,S3758
S3759,,Stade,43.7334570918566,3.98015290902348,1,
1072,36152,Stade,43.7334570918566,3.98015290902348,0,S3759
1110,36253,Stade,43.7334484808115,3.98012786237778,0,S3759
S3760,,Avenue de Montpellier,43.6968876108024,4.03238189032313,1,
1022,35107,Avenue de Montpellier,43.6968876108024,4.03238189032313,0,S3760
1034,35208,Avenue de Montpellier,43.6969862677226,4.03239721487862,0,S3760
S3761,,Les Mazets,43.6990994048816,4.01853158104081,1,
946,31101,Les Mazets,43.6990994048816,4.01853158104081,0,S3761
952,31201,Les Mazets,43.6991879238241,4.0186209344005,0,S3761
S3762,,Les Mourguettes,43.6969011611902,4.02633528756693,1,
948,31103,Les Mourguettes,43.6969011611902,4.02633528756693,0,S3762
954,31203,Les Mourguettes,43.6969623278733,4.02644862226866,0,S3762
S3763,,Les Pérouses,43.698168401181,4.02405558801792,1,
947,31102,Les Pérouses,43.698168401181,4.02405558801792,0,S3763
953,31202,Les Pérouses,43.6981940102701,4.02414308734036,0,S3763
S3764,,Poste,43.696589751137,4.0313073791286,1,
949,31104,Poste,43.696589751137,4.0313073791286,0,S3764
955,31204,Poste,43.6966723724999,4.03119831167937,0,S3764
S3765,,La Regnague,43.6090104471808,3.79536170104508,1,
1067,36138,La Regnague,43.6090104471808,3.79536170104508,0,S3765
1105,36238,La Regnague,43.6089768174982,3.79585570595333,0,S3765
S3766,,Stade,43.6075893521589,3.7847108612135,1,
1068,36139,Stade,43.6075893521589,3.7847108612135,0,S3766
1104,36237,Stade,43.6073598434165,3.78439576349506,0,S3766
S3767,,Allée du Bois,43.5821412705962,3.82439098365076,1,
598,20102,Allée du Bois,43.5821412705962,3.82439098365076,0,S3767
644,20235,Allée du Bois,43.5821302437526,3.82453908696203,0,S3767
S3768,,Cave Coopérative,43.5732129989929,3.8271383101942,1,
874,26111,Cave Coopérative,43.5732129989929,3.8271383101942,0,S3768
879,26209,Cave Coopérative,43.5733820305189,3.82726635763535,0,S3768
S3769,,Centre Commercial,43.5706326649374,3.84724811924939,1,
869,26103,Centre Commercial,43.5706326649374,3.84724811924939,0,S3769
876,26206,Centre Commercial,43.5705032267486,3.84686143275553,0,S3769
S3770,,Château du Terral,43.5829771988692,3.8309172900504,1,
597,20101,Château du Terral,43.5829771988692,3.8309172900504,0,S3770
645,20236,Château du Terral,43.5829395463318,3.83103996615456,0,S3770
S3771,,Collège Louis Germain,43.5786896248878,3.82306462523304,1,
599,20103,Collège Louis Germain,43.5786896248878,3.82306462523304,0,S3771
643,20234,Collège Louis Germain,43.5787320068054,3.82325120431642,0,S3771
S3772,,Côteaux,43.5775540041006,3.83500430187554,1,
604,20109,Côteaux,43.5775540041006,3.83500430187554,0,S3772
638,20228,Côteaux,43.5776091193804,3.83491919233706,0,S3772
S3773,,Gymnase,43.5772788347741,3.82171726622474,1,
600,20104,Gymnase,43.5772788347741,3.82171726622474,0,S3773
642,20233,Gymnase,43.5773858192936,3.82178187012327,0,S3773
S3774,,Jasses,43.5706156432641,3.82775057080065,1,
867,26101,Jasses,43.5706156432641,3.82775057080065,0,S3774
878,26208,Jasses,43.5704350209359,3.82846293311705,0,S3774
S3775,,La Condamine,43.5716010011206,3.84420752480811,1,
1204,42105,La Condamine,43.5716010011206,3.84420752480811,0,S3775
1263,42265,La Condamine,43.5716010011206,3.84420752480811,0,S3775
S3776,,La Lauze,43.5617620872128,3.84518422893609,1,
871,26108,La Lauze,43.5617620872128,3.84518422893609,0,S3776
S3777,,La Roque,43.5698754636093,3.83512447603848,1,
868,26102,La Roque,43.5698754636093,3.83512447603848,0,S3777
877,26207,La Roque,43.5698863335877,3.83498876528569,0,S3777
S3778,,Le Terral,43.5925880733468,3.82822500224462,1,
1120,38101,Le Terral,43.5925880733468,3.82822500224462,0,S3778
1130,38201,Le Terral,43.5924978703958,3.82824738388591,0,S3778
S3779,,Les Grisettes,43.5798822060372,3.85754571325217,1,
1206,42109,Les Grisettes,43.5798822060372,3.85754571325217,0,S3779
1261,42261,Les Grisettes,43.5799183240565,3.85753430891038,0,S3779
S3780,,Louise Michel,43.5809232780559,3.83383133964099,1,
621,20140,Louise Michel,43.5809232780559,3.83383133964099,0,S3780
647,20240,Louise Michel,43.5809244759308,3.83374481161032,0,S3780
S3781,,Marquerose,43.5834241466041,3.82653899079839,1,
622,20141,Marquerose,43.5834241466041,3.82653899079839,0,S3781
648,20241,Marquerose,43.5833790456223,3.82655018116381,0,S3781
S3782,,Mas de Magret,43.5679026644706,3.82827321895135,1,
872,26109,Mas de Magret,43.5679026644706,3.82827321895135,0,S3782
881,26211,Mas de Magret,43.567947253608,3.82829910804725,0,S3782
S3783,,Roudères,43.5748892526788,3.82552520477809,1,
603,20107,Roudères,43.5748892526788,3.82552520477809,0,S3783
639,20230,Roudères,43.5749369057723,3.82532861711332,0,S3783
S3784,,Saint-Hubéry,43.573566403664,3.81974148538565,1,
602,20106,Saint-Hubéry,43.573566403664,3.81974148538565,0,S3784
640,20231,Saint-Hubéry,43.5736479564764,3.81969414534803,0,S3784
S3785,,Saint-Jean de Védas Centre,43.5747502037232,3.83039310776656,1,
620,20139,Saint-Jean de Védas Centre,43.5747502037232,3.83039310776656,0,S3785
646,20239,Saint-Jean de Védas Centre,43.5747044196853,3.83045373263947,0,S3785
1202,42101,Saint-Jean de Védas Centre,43.5748036079191,3.83043159629415,0,S3785
S3786,,Saint-Jean le Sec,43.5707582689587,3.83758321574079,1,
619,20138,Saint-Jean le Sec,43.5707582689587,3.83758321574079,0,S3786
649,20242,Saint-Jean le Sec,43.5707577542797,3.8376202925516,0,S3786
1203,42103,Saint-Jean le Sec,43.5705875344994,3.83757873266956,0,S3786
1264,42267,Saint-Jean le Sec,43.5706234785942,3.83757967647181,0,S3786
S3787,,Sigaliès,43.5721256175153,3.81467208646346,1,
992,33101,Sigaliès,43.5721256175153,3.81467208646346,0,S3787
1013,33209,Sigaliès,43.5719821780533,3.81464365025615,0,S3787
S3788,,Terre Neuve,43.5610375573451,3.84942978329142,1,
870,26107,Terre Neuve,43.5610375573451,3.84942978329142,0,S3788
875,26202,Terre Neuve,43.5606952274561,3.84948253155492,0,S3788
S3789,,Tourtourel,43.5758497183819,3.81973890937861,1,
601,20105,Tourtourel,43.5758497183819,3.81973890937861,0,S3789
641,20232,Tourtourel,43.5756893247052,3.81963583193527,0,S3789
S3790,,Val des Garrigues,43.5667391722589,3.82659864198541,1,
873,26110,Val des Garrigues,43.5667391722589,3.82659864198541,0,S3790
880,26210,Val des Garrigues,43.5667215408174,3.82657345737539,0,S3790
S3791,,Victoire 2,43.5747710723995,3.84958307342985,1,
1205,42107,Victoire 2,43.5747710723995,3.84958307342985,0,S3791
1262,42263,Victoire 2,43.5748077082151,3.84953458574525,0,S3791
S3792,,Aires,43.5725624228348,3.77291879372873,1,
1004,33113,Aires,43.5725624228348,3.77291879372873,0,S3792
1017,33213,Aires,43.5726755095033,3.77252599789567,0,S3792
S3793,,Barils,43.5718374540171,3.77335802701292,1,
1003,33112,Barils,43.5718374540171,3.77335802701292,0,S3793
1016,33212,Barils,43.5718933415136,3.77321106970361,0,S3793
S3794,,La Gardiole,43.5686981529021,3.77080656778746,1,
1044,36112,La Gardiole,43.5686981529021,3.77080656778746,0,S3794
1102,36225,La Gardiole,43.5687543646028,3.77063489865563,0,S3794
S3795,,La Vialette,43.5686300053396,3.77390791831162,1,
1043,36111,La Vialette,43.5686300053396,3.77390791831162,0,S3795
1103,36226,La Vialette,43.5685474871876,3.77402947139574,0,S3795
S3796,,Les Cévennes,43.5726848958849,3.77114150315777,1,
1046,36114,Les Cévennes,43.5726848958849,3.77114150315777,0,S3796
1100,36223,Les Cévennes,43.5726327822961,3.77100419517565,0,S3796
S3797,,Les Combes,43.5706968980506,3.76921240418702,1,
1045,36113,Les Combes,43.5706968980506,3.76921240418702,0,S3797
1101,36224,Les Combes,43.5706630818798,3.76905083486401,0,S3797
S3798,,Mairie,43.5707553368914,3.77361518454242,1,
1002,33111,Mairie,43.5707553368914,3.77361518454242,0,S3798
1015,33211,Mairie,43.5707662938811,3.77346710091601,0,S3798
S3799,,Pascaou,43.567961629119,3.77347078403275,1,
1005,33114,Pascaou,43.567961629119,3.77347078403275,0,S3799
1018,33214,Pascaou,43.5680246963421,3.77346000651735,0,S3799
S3800,,Albert Dubout,43.6623881859945,3.97475036374498,1,
663,21120,Albert Dubout,43.6623881859945,3.97475036374498,0,S3800
681,21223,Albert Dubout,43.6624864739887,3.97479033613828,0,S3800
S3801,,Arènes,43.6551376783468,3.96729872674345,1,
655,21107,Arènes,43.6551376783468,3.96729872674345,0,S3801
674,21211,Arènes,43.6552269822448,3.96733842449034,0,S3801
S3802,,Châtaigniers,43.6509331536916,3.95932893397192,1,
652,21104,Châtaigniers,43.6509331536916,3.95932893397192,0,S3802
677,21214,Châtaigniers,43.6501659046634,3.95773473381412,0,S3802
S3803,,Devèzes,43.662771894874,3.97017937002017,1,
658,21110,Devèzes,43.662771894874,3.97017937002017,0,S3803
670,21207,Devèzes,43.6627381901094,3.97002979983257,0,S3803
S3804,,Écoles,43.6586958890196,3.96742515214175,1,
672,21209,Écoles,43.6586958890196,3.96742515214175,0,S3804
S3805,,Frédéric Mistral,43.6640061031843,3.97417759989132,1,
659,21111,Frédéric Mistral,43.6640061031843,3.97417759989132,0,S3805
669,21206,Frédéric Mistral,43.6642826188085,3.97372732109733,0,S3805
S3806,,Gustave Courbet,43.6583862630538,3.97602238567216,1,
661,21115,Gustave Courbet,43.6583862630538,3.97602238567216,0,S3806
667,21202,Gustave Courbet,43.6584662028526,3.97608659620511,0,S3806
S3807,,La Fontaine,43.6579005894523,3.96291988312431,1,
666,21123,La Fontaine,43.6579005894523,3.96291988312431,0,S3807
684,21226,La Fontaine,43.6577727357394,3.96305244973031,0,S3807
S3808,,Meyrargues,43.6537344252754,3.96914067654354,1,
910,29101,Meyrargues,43.6537344252754,3.96914067654354,0,S3808
935,29212,Meyrargues,43.6538663579128,3.96814151932332,0,S3808
S3809,,Monnaie,43.6605717334777,3.97001733097103,1,
657,21109,Monnaie,43.6605717334777,3.97001733097103,0,S3809
671,21208,Monnaie,43.6603388354783,3.96996113263219,0,S3809
S3810,,Parc Gouneaud,43.6545071508199,3.96499004556315,1,
654,21106,Parc Gouneaud,43.6545071508199,3.96499004556315,0,S3810
675,21212,Parc Gouneaud,43.6542247447038,3.96404096301365,0,S3810
S3811,,Parc Vendargues,43.6607798160172,3.97528621912745,1,
660,21112,Parc Vendargues,43.6607798160172,3.97528621912745,0,S3811
668,21205,Parc Vendargues,43.6606519468858,3.97541876471285,0,S3811
S3812,,Paul Gauguin,43.6549564945182,3.97572576371283,1,
662,21119,Paul Gauguin,43.6549564945182,3.97572576371283,0,S3812
S3813,,Poste,43.6576550377218,3.96848508853239,1,
656,21108,Poste,43.6576550377218,3.96848508853239,0,S3813
673,21210,Poste,43.6577473258117,3.96832675201828,0,S3813
S3814,,Zone Industrielle,43.6535363955843,3.96258505236714,1,
653,21105,Zone Industrielle,43.6535363955843,3.96258505236714,0,S3814
676,21213,Zone Industrielle,43.6533472448138,3.96201010501267,0,S3814
S3815,,Zone Industrielle Bigos,43.6553198772501,3.94973367397967,1,
664,21121,Zone Industrielle Bigos,43.6553198772501,3.94973367397967,0,S3815
682,21224,Zone Industrielle Bigos,43.6552652215598,3.94978165776776,0,S3815
S3816,,Zone Industrielle Marbrerie,43.654176263573,3.95467886776321,1,
665,21122,Zone Industrielle Marbrerie,43.654176263573,3.95467886776321,0,S3816
683,21225,Zone Industrielle Marbrerie,43.6541124344425,3.95473896773407,0,S3816
S3817,,Arnel,43.5380719128249,3.86908689441648,1,
958,32101,Arnel,43.5380719128249,3.86908689441648,0,S3817
984,32212,Arnel,43.5380513138934,3.86927168946488,0,S3817
S3818,,Avenue de la Gare,43.5371611208793,3.85720048593524,1,
967,32111,Avenue de la Gare,43.5371611208793,3.85720048593524,0,S3818
976,32203,Avenue de la Gare,43.5370265085,3.85718455091559,0,S3818
S3819,,Boulevard des Écoles,43.5339687357134,3.86239143931779,1,
959,32102,Boulevard des Écoles,43.5339687357134,3.86239143931779,0,S3819
986,32214,Boulevard des Écoles,43.5335169936917,3.86127975271466,0,S3819
S3820,,Boulevard du Chapitre,43.5333370270195,3.86447501135246,1,
966,32110,Boulevard du Chapitre,43.5333370270195,3.86447501135246,0,S3820
983,32211,Boulevard du Chapitre,43.5333370270195,3.86447501135246,0,S3820
S3821,,Domenoves,43.5306881374108,3.85406325353955,1,
962,32105,Domenoves,43.5306881374108,3.85406325353955,0,S3821
979,32206,Domenoves,43.5306881374108,3.85406325353955,0,S3821
S3822,,Font Majour,43.5351424012485,3.85948206482062,1,
969,32114,Font Majour,43.5351424012485,3.85948206482062,0,S3822
985,32213,Font Majour,43.5348434354081,3.85964708525957,0,S3822
S3823,,Les Moures,43.5241498803238,3.86004182934098,1,
973,32121,Les Moures,43.5241498803238,3.86004182934098,0,S3823
990,32221,Les Moures,43.5241498803238,3.86004182934098,0,S3823
S3824,,Les Salins,43.5306534356568,3.85844829682539,1,
971,32119,Les Salins,43.5306534356568,3.85844829682539,0,S3824
988,32219,Les Salins,43.5306534356568,3.85844829682539,0,S3824
S3825,,Maison d'Arrêt,43.5463104011327,3.82829084276402,1,
968,32112,Maison d'Arrêt,43.5463104011327,3.82829084276402,0,S3825
975,32202,Maison d'Arrêt,43.5463105716239,3.82827848908408,0,S3825
S3826,,Myosotis,43.528673185325,3.86500522680014,1,
965,32109,Myosotis,43.528673185325,3.86500522680014,0,S3826
982,32210,Myosotis,43.528673185325,3.86500522680014,0,S3826
S3827,,Olivier de Bohême,43.5272523311226,3.86313885481008,1,
964,32108,Olivier de Bohême,43.5272523311226,3.86313885481008,0,S3827
981,32209,Olivier de Bohême,43.5272523311226,3.86313885481008,0,S3827
S3828,,Pèlerine,43.5265484380905,3.8550405882026,1,
972,32120,Pèlerine,43.5265484380905,3.8550405882026,0,S3828
989,32220,Pèlerine,43.5265484380905,3.8550405882026,0,S3828
S3829,,Pilou,43.5294310270757,3.86544553183772,1,
970,32115,Pilou,43.5294310270757,3.86544553183772,0,S3829
987,32215,Pilou,43.5289808698394,3.86549527308879,0,S3829
S3830,,Pont de Villeneuve,43.5546250032145,3.84451388863446,1,
974,32201,Pont de Villeneuve,43.5546250032145,3.84451388863446,0,S3830
S3831,,Stade,43.5333687571556,3.85520928988838,1,
960,32103,Stade,43.5333687571556,3.85520928988838,0,S3831
977,32204,Stade,43.5333687571556,3.85520928988838,0,S3831
S3832,,Tadornes,43.5270813243766,3.86124411805879,1,
963,32107,Tadornes,43.5270813243766,3.86124411805879,0,S3832
980,32208,Tadornes,43.5270813243766,3.86124411805879,0,S3832
S3833,,Vignes Vierges,43.532273493681,3.85254856030176,1,
961,32104,Vignes Vierges,43.532273493681,3.85254856030176,0,S3833
978,32205,Vignes Vierges,43.532273493681,3.85254856030176,0,S3833
